stop_id,stop_code,stop_name,stop_desc,stop_lat,stop_lon,zone_id,stop_url,location_type,parent_station
311010,311010,"Terra Nova Blvd & Alicante Dr",,  37.585609,-122.476654,1,,0,
311013,311013,"Bradford Way & Fairway Dr",,  37.621694,-122.485818,1,,0,
311019,311019,"Clarendon Rd & Francisco Blvd",,  37.629827,-122.489951,1,,0,
311020,311020,"Clarendon Rd & Francisco Blvd",,  37.629935,-122.490219,1,,0,
311025,311025,"Crespi Dr & De Solo Dr",,  37.595272,-122.497519,1,,0,
311026,311026,"Crespi Dr & Seville Dr",,  37.593491,-122.492214,1,,0,
311029,311029,"Crespi Dr & Fassler Ave",,  37.598728,-122.482538,1,,0,
311030,311030,"Crespi Dr & Hwy 1",,  37.598951,-122.499371,1,,0,
311034,311034,"Crespi Dr & Lerida Way",,  37.594293,-122.480849,1,,0,
311035,311035,"Crespi Dr & Manzanita Dr",,  37.589688,-122.484194,1,,0,
311038,311038,"Crespi Dr & Peralta Rd",,  37.593324,-122.496091,1,,0,
311039,311039,"Crespi Dr & Regina Way",,  37.593406,-122.488870,1,,0,
311040,311040,"Crespi Dr & Roberts Rd",,  37.598040,-122.498012,1,,0,
311042,311042,"Crespi Dr & Tapis Way",,  37.589759,-122.488455,1,,0,
311043,311043,"De Solo Dr & Anza Dr",,  37.595982,-122.498681,1,,0,
311049,311049,"Francisco Blvd & Lakeside Ave",,  37.628538,-122.489777,1,,0,
311050,311050,"Gateway Dr & Eastridge Cir",,  37.664568,-122.482055,1,,0,
311051,311051,"Gateway Dr & Eastridge Cir",,  37.664629,-122.482516,1,,0,
311052,311052,"Gateway Dr & Hickey Blvd",,  37.660276,-122.478764,1,,0,
311053,311053,"Gateway Dr & Hickey Blvd",,  37.660598,-122.478832,1,,0,
311054,311054,"Gateway Dr & Skyline Dr",,  37.665769,-122.485931,1,,0,
311055,311055,"Gateway Dr & Springdale Dr",,  37.663181,-122.479520,1,,0,
311056,311056,"Gateway Dr & Springdale Dr",,  37.662976,-122.479581,1,,0,
311060,311060,"Glencourt Way & Inverness Dr",,  37.648432,-122.474911,1,,0,
311062,311062,"Hickey Blvd & Catalina Ave",,  37.653929,-122.480670,1,,0,
311063,311063,"Hickey Blvd & Catalina Ave",,  37.654096,-122.480784,1,,0,
311064,311064,"Hickey Blvd & Firecrest Ave",,  37.657405,-122.478883,1,,0,
311067,311067,"Hickey Blvd & Gateway Dr",,  37.659331,-122.478147,1,,0,
311068,311068,"Hickey Blvd & Gateway Dr",,  37.659939,-122.477901,1,,0,
311069,311069,"Hickey Blvd & Inverness Dr",,  37.655155,-122.478923,1,,0,
311072,311072,"Hickey Blvd & Parkview Cir",,  37.656789,-122.479046,1,,0,
311074,311074,"Hwy 1 & Crespi Dr",,  37.599209,-122.500147,1,,0,
311078,311078,"Hwy 1 & Fassler Ave",,  37.608866,-122.494765,1,,0,
311081,311081,"Hwy 1 & Reina Del Mar Ave",,  37.614154,-122.486501,1,,0,
311082,311082,"Hwy 1 & Reina Del Mar Ave",,  37.613675,-122.487606,1,,0,
311085,311085,"Hwy 1 & Rockaway Beach Ave",,  37.608310,-122.496235,1,,0,
311087,311087,"Hwy 1 & Westport Dr",,  37.620861,-122.484829,1,,0,
311088,311088,"Hwy 1 & Westport Dr",,  37.620447,-122.485282,1,,0,
311089,311089,"Inverness Dr & Foothill Dr",,  37.652040,-122.478171,1,,0,
311090,311090,"Inverness Dr & Foothill Dr",,  37.652117,-122.478058,1,,0,
311093,311093,"Inverness Dr & Glencourt Way",,  37.648244,-122.475101,1,,0,
311095,311095,"Inverness Dr & Heathcliff Dr",,  37.651087,-122.477508,1,,0,
311096,311096,"Inverness Dr & Heathcliff Dr",,  37.651153,-122.477332,1,,0,
311099,311099,"Inverness Dr & Horizon Way",,  37.653907,-122.479200,1,,0,
311106,311106,"Linda Mar Park N Ride",,  37.595585,-122.502932,1,,0,
311112,311112,"Lundy Way & Ridgeway Dr",,  37.621728,-122.484298,1,,0,
311113,311113,"Manor Dr & Skyline Blvd",,  37.645945,-122.471708,1,,0,
311115,311115,"Monterey Rd & Beaumont Blvd",,  37.651201,-122.483763,1,,0,
311116,311116,"Monterey Rd & Beaumont Blvd",,  37.651043,-122.483479,1,,0,
311117,311117,"Monterey Rd & Waterford St",,  37.651685,-122.488842,1,,0,
311118,311118,"Monterey Rd & Waterford St",,  37.651803,-122.488979,1,,0,
311119,311119,"Oceana Blvd & Brighton Rd",,  37.630466,-122.488969,1,,0,
311120,311120,"Oceana Blvd & Clarendon Rd",,  37.630123,-122.489105,1,,0,
311121,311121,"Oceana Blvd & Eureka Sq",,  37.634078,-122.489363,1,,0,
311122,311122,"Oceana Blvd & Eureka Sq",,  37.634338,-122.489237,1,,0,
311123,311123,"904 Oceana Blvd-Good Shepherd School",,  37.641356,-122.490672,1,,0,
311124,311124,"903 Oceana Blvd-Good Shepherd School",,  37.641910,-122.490790,1,,0,
311126,311126,"Oceana Blvd & Manor Dr",,  37.648947,-122.490504,1,,0,
311127,311127,"Oceana Blvd & Milagra Dr",,  37.645975,-122.491054,1,,0,
311128,311128,"Oceana Blvd & Milagra Dr",,  37.646991,-122.490958,1,,0,
311132,311132,"Oceana Blvd & Pacific Manor School Rear Entrance",,  37.650369,-122.490358,1,,0,
311133,311133,"Oceana Blvd & Pacific Manor School Rear Entrance",,  37.650746,-122.490156,1,,0,
311134,311134,"Oceana Blvd & Paloma Ave",,  37.636889,-122.489257,1,,0,
311135,311135,"Oceana Blvd & Paloma Ave",,  37.636720,-122.489429,1,,0,
311142,311142,"Oddstad Blvd & Terra Nova Blvd",,  37.582905,-122.474648,1,,0,
311145,311145,"95 Palmetto Ave",,  37.653953,-122.490951,1,,0,
311146,311146,"Palmetto Ave & Bella Vista Ave",,  37.637103,-122.492322,1,,0,
311147,311147,"Palmetto Ave & Brighton Rd",,  37.630489,-122.492478,1,,0,
311148,311148,"Palmetto Ave & Clarendon Rd",,  37.630116,-122.492677,1,,0,
311149,311149,"Palmetto Ave & Esplanade Ave",,  37.654638,-122.491459,1,,0,
311150,311150,"Palmetto Ave & Manor Dr",,  37.649897,-122.491070,1,,0,
311151,311151,"Palmetto Ave & Manor Dr",,  37.648955,-122.491141,1,,0,
311152,311152,"Palmetto Ave & Montecito Ave",,  37.632984,-122.492205,1,,0,
311153,311153,"Palmetto Ave & Montecito Ave",,  37.632495,-122.492630,1,,0,
311154,311154,"Palmetto Ave & Monterey Rd",,  37.652384,-122.490786,1,,0,
311155,311155,"Palmetto Ave & Monterey Rd",,  37.652209,-122.490916,1,,0,
311157,311157,"Palmetto Ave & Paradise Dr",,  37.660515,-122.489483,1,,0,
311158,311158,"Palmetto Ave & Hwy 1 Onramp-SF RV Resort",,  37.645991,-122.492018,1,,0,
311159,311159,"700 Palmetto Ave-SF RV Resort",,  37.646097,-122.492229,1,,0,
311160,311160,"Palmetto Ave & Santa Maria Ave",,  37.635497,-122.492003,1,,0,
311161,311161,"Palmetto Ave & Santa Maria Ave",,  37.635156,-122.492141,1,,0,
311163,311163,"Westport Dr & Hwy 1",,  37.620597,-122.485479,1,,0,
311164,311164,"Palmetto Ave & Westline Dr",,  37.660865,-122.491733,1,,0,
311182,311182,"Skyline Blvd & Glencourt Way",,  37.648825,-122.472054,1,,0,
311184,311184,"Skyline Blvd & Manor Dr",,  37.645892,-122.470858,1,,0,
311191,311191,"1450 Terra Nova Blvd.",,  37.593872,-122.476132,1,,0,
311193,311193,"Terra Nova Blvd & Mason Dr",,  37.596010,-122.479583,1,,0,
311194,311194,"Terra Nova Blvd & Miranda Ct",,  37.597602,-122.481531,1,,0,
311196,311196,"Terra Nova Blvd & Oddstad Blvd",,  37.583847,-122.474912,1,,0,
311197,311197,"West Manor Dr & Palmetto Ave",,  37.649393,-122.491492,1,,0,
311199,311199,"Westport Dr & Lundy Way",,  37.620582,-122.484582,1,,0,
311302,311302,"Terra Nova Blvd & Lerida Way",,  37.587627,-122.477459,1,,0,
311420,311420,"Gateway Dr & Skyline Dr",,  37.665623,-122.485382,1,,0,
311506,311506,"Palmetto Ave & Shoreview Ave",,  37.640160,-122.492583,1,,0,
311510,311510,"Linda Mar Blvd & Madeira Dr",,  37.582148,-122.479467,1,,0,
311609,311609,"Palmetto Ave & Shell St",,  37.639268,-122.492397,1,,0,
311613,311613,"Linda Mar Blvd & Capistrano Dr",,  37.582598,-122.483315,1,,0,
311615,311615,"Linda Mar Blvd & Peralta Rd",,  37.591180,-122.497013,1,,0,
311616,311616,"Linda Mar Blvd & Alicante Dr",,  37.584162,-122.486210,1,,0,
311617,311617,"Linda Mar Blvd & Seville Dr",,  37.588464,-122.493991,1,,0,
311619,311619,"Devil's Slide Tunnel Stop",,  37.570210,-122.515648,1,,0,
311620,311620,"Devil's Slide Tunnel Stop",,  37.569983,-122.515805,1,,0,
312002,312002,"2nd St & Main St",,  37.545439,-122.513636,1,,0,
312004,312004,"Hwy 1 & 14th St",,  37.537453,-122.517388,1,,0,
312005,312005,"Hwy 1 & 16th St",,  37.535555,-122.517960,1,,0,
312006,312006,"Main St & 4th St",,  37.543749,-122.514103,1,,0,
312007,312007,"Main St & 4th St",,  37.544011,-122.513807,1,,0,
312008,312008,"Main St & 7th St",,  37.541945,-122.515420,1,,0,
312009,312009,"Main St & 7th St",,  37.542241,-122.515007,1,,0,
312011,312011,"Harte St & Date St",,  37.538289,-122.504862,1,,0,
312012,312012,"Crescent St & Sunshine Valley Rd",,  37.537169,-122.500355,1,,0,
312013,312013,"1619 Sunshine Valley Rd",,  37.532276,-122.503600,1,,0,
312014,312014,"Sunshine Valley Rd & Hawthorne St",,  37.535843,-122.500780,1,,0,
312018,312018,"Sunshine Valley Rd & Harte St",,  37.537452,-122.500317,1,,0,
312021,312021,"Harte St & Date St",,  37.538100,-122.504822,1,,0,
312022,312022,"Sunshine Valley Rd & Hawthorne St",,  37.535997,-122.500768,1,,0,
312023,312023,"1604 Sunshine Valley Rd",,  37.532379,-122.503665,1,,0,
312024,312024,"6th St & Le Conte Ave",,  37.540410,-122.509680,1,,0,
312025,312025,"6th St & Le Conte Ave.",,  37.540450,-122.509730,1,,0,
312026,312026,"6th St & Audubon Ave.",,  37.539567,-122.507903,1,,0,
312027,312027,"6th St & Audubon Ave",,  37.539497,-122.507580,1,,0,
313001,313001,"Airport St & La Granada Ln-Mobile Home Park",,  37.509370,-122.498098,1,,0,
313002,313002,"Etheldore St & California Ave",,  37.528466,-122.512891,1,,0,
313003,313003,"Etheldore St & California Ave",,  37.528455,-122.512654,1,,0,
313004,313004,"Etheldore St & Vermont Ave",,  37.527691,-122.511389,1,,0,
313005,313005,"Etheldore St & Marine Blvd",,  37.525073,-122.508628,1,,0,
313006,313006,"Marine Blvd & Etheldore St",,  37.524974,-122.508646,1,,0,
313007,313007,"Etheldore St & Sunshine Valley Rd",,  37.527541,-122.510890,1,,0,
313011,313011,"Airport St & La Granada Ln-Mobile Home Park",,  37.509622,-122.498204,1,,0,
313604,313604,"Seton Coastside Med Ctr",,  37.526519,-122.507641,1,,0,
313605,313605,"Sunshine Valley Rd & Etheldore St",,  37.527489,-122.510738,1,,0,
313606,313606,"Etheldore St & Sunshine Valley Rd",,  37.527291,-122.510730,1,,0,
313607,313607,"Cypress Ave & Hwy 1",,  37.524148,-122.510597,1,,0,
313608,313608,"Cypress Ave & Hwy 1",,  37.523727,-122.510935,1,,0,
313609,313609,"Airport St & Harvard Ave",,  37.504337,-122.491840,1,,0,
313610,313610,"Airport St & Harvard Ave",,  37.504177,-122.491853,1,,0,
314001,314001,"Ave Alhambra & The Alameda",,  37.503520,-122.474582,1,,0,
314002,314002,"Ave Alhambra & Vallejo St-Carmel Ave",,  37.505533,-122.480407,1,,0,
314003,314003,"Ave Alhambra & Coronado St-San Luis Ave",,  37.503369,-122.473562,1,,0,
314004,314004,"Ave Alhambra & Francisco St-Sonora Ave",,  37.504227,-122.476858,1,,0,
314005,314005,"Ave Alhambra & Sonora Ave-Francisco St",,  37.504167,-122.477026,1,,0,
314006,314006,"Ave Alhambra & Vallejo St",,  37.505089,-122.480079,1,,0,
314009,314009,"Plaza Alhambra & Ave Portola",,  37.502396,-122.469338,1,,0,
314010,314010,"Plaza Alhambra & Ave Portola",,  37.502656,-122.469620,1,,0,
314011,314011,"Plaza Alhambra & Coronado St",,  37.500674,-122.467325,1,,0,
314012,314012,"Plaza Alhambra & Coronado St",,  37.500704,-122.467128,1,,0,
314013,314013,"Hwy 1 & Medio Ave",,  37.495848,-122.457500,1,,0,
314014,314014,"Airport St & Los Banos Ave",,  37.519891,-122.510278,1,,0,
314015,314015,"Airport St & Los Banos Ave",,  37.519642,-122.510166,1,,0,
314016,314016,"Hwy 1 & Medio Ave",,  37.496127,-122.457710,1,,0,
314900,314900,"Capistrano Rd & Pillar Point Harbor",,  37.504793,-122.481571,1,,0,
314901,314901,"Capistrano Rd & Pillar Point Harbor",,  37.504895,-122.481689,1,,0,
314902,314902,"Prospect Way & Broadway",,  37.504670,-122.487413,1,,0,
314903,314903,"Prospect Way & Capistrano Rd",,  37.504800,-122.486756,1,,0,
315001,315001,"3040 Hwy 1",,  37.493246,-122.453276,1,,0,
315002,315002,"Hwy 1 & Alto Ave",,  37.494615,-122.454391,1,,0,
315003,315003,"Hwy 1 & Nurseyman Exchange",,  37.435730,-122.427023,1,,0,
315006,315006,"Hwy 1 & Grandview Blvd",,  37.475797,-122.438751,1,,0,
315008,315008,"Hwy 1 & Kehoe Ave",,  37.476222,-122.439488,1,,0,
315010,315010,"Hwy 1 & Miramontes Point Rd",,  37.431902,-122.426521,1,,0,
315011,315011,"Hwy 1 & Miramontes Point Rd",,  37.430761,-122.426789,1,,0,
315012,315012,"2265 Hwy 1",,  37.439797,-122.427622,1,,0,
315014,315014,"Hwy 1 & Redondo Beach Rd",,  37.440920,-122.427967,1,,0,
315015,315015,"Hwy 1 & Roosevelt Blvd",,  37.491353,-122.451706,1,,0,
315016,315016,"Hwy 1 & Roosevelt Blvd",,  37.490503,-122.451380,1,,0,
315017,315017,"Hwy 1 & Ruisseau Francais Ave",,  37.483802,-122.446712,1,,0,
315018,315018,"Hwy 1 & Ruisseau Francais Ave",,  37.483849,-122.446537,1,,0,
315019,315019,"Hwy 1 & Spindrift Way",,  37.479297,-122.442399,1,,0,
315020,315020,"Hwy 1 & Spindrift Way",,  37.478779,-122.442172,1,,0,
315021,315021,"Hwy 1 & Grand Dr",,  37.471976,-122.435207,1,,0,
315022,315022,"Hwy 1 & Terrace Ave",,  37.473097,-122.435910,1,,0,
315023,315023,"Hwy 1 & Venice Blvd",,  37.481542,-122.445052,1,,0,
315024,315024,"Hwy 92 & Berta's Fruit Farm",,  37.478133,-122.414234,1,,0,
315025,315025,"Hwy 92 & Hwy 1",,  37.468017,-122.431954,1,,0,
315026,315026,"Hwy 92 & Main St",,  37.468136,-122.428950,1,,0,
315027,315027,"Hwy 92 & Marsh Farms",,  37.475873,-122.417956,1,,0,
315028,315028,"251 Hwy 92-Hilltop Mobile Home Park",,  37.469095,-122.425797,1,,0,
315029,315029,"250 Hwy 92-Hilltop Mobile Home Park",,  37.469091,-122.426334,1,,0,
315030,315030,"12341 Hwy 92-La Nebbia Winery",,  37.480226,-122.405918,1,,0,
315031,315031,"12340 Hwy 92-La Nebbia Winery",,  37.480279,-122.406628,1,,0,
315033,315033,"Main St & Poplar St",,  37.457039,-122.430008,1,,0,
315034,315034,"Main St & Grove St",,  37.455378,-122.429819,1,,0,
315035,315035,"Main St & Higgins Canyon Rd",,  37.451501,-122.429336,1,,0,
315036,315036,"735 Main St-Ides Hall",,  37.460146,-122.429677,1,,0,
315039,315039,"Main / Miramontes",,  37.462447,-122.429324,1,,0,
315040,315040,"Strawflower Shopping Ctr",,  37.469601,-122.435083,1,,0,
315041,315041,"Main St & Miramontes St",,  37.462071,-122.429571,1,,0,
315463,315463,"Hwy 1 & Wavecrest Rd",,  37.447619,-122.428908,1,,0,
315467,315467,"Canada Cove Ave & El Paso",,  37.429465,-122.428586,1,,0,
315604,315604,"Main St & Poplar St",,  37.457190,-122.430153,1,,0,
315605,315605,"Main St & Grove St",,  37.455630,-122.430003,1,,0,
315606,315606,"Main St & Higgins Canyon Rd",,  37.451453,-122.429476,1,,0,
315607,315607,"Miramontes Point Rd & Iris Ln",,  37.432727,-122.420632,1,,0,
315608,315608,"Miramontes Point Rd-Moonridge Apts",,  37.434760,-122.417448,1,,0,
315609,315609,"Hwy 1 & Nurseyman Exchange",,  37.488258,-122.449599,1,,0,
315610,315610,"Miramontes Point Rd & Hwy 1",,  37.431331,-122.426164,1,,0,
315612,315612,"Kelly Ave & Church St-Community Center",,  37.463870,-122.432270,1,,0,
315614,315614,"Main St & Lewis Foster Dr",,  37.469340,-122.431700,1,,0,
315616,315616,"235 Main St-HMB Visitor Ctr",,  37.467290,-122.429500,1,,0,
315617,315617,"Kelly Ave & Church St",,  37.463900,-122.431320,1,,0,
315900,315900,"Hwy 92  & Skyline Blvd",,  37.496105,-122.368123,1,,0,
315901,315901,"Hwy 92 & Hwy 35-Skyline Blvd",,  37.495580,-122.368676,1,,0,
315902,315902,"Hwy 92 & Pilarcitos Creek Rd",,  37.492137,-122.386360,1,,0,
315903,315903,"Hwy 92 & Pilarcitos Creek Rd",,  37.490860,-122.388722,1,,0,
316002,316002,"Pescadero Creek Rd & Hwy 1",,  37.259674,-122.412919,1,,0,
316003,316003,"Pescadero Creek Rd & Water Ln",,  37.250304,-122.392496,1,,0,
316004,316004,"Pescadero Creek Rd & Water Ln",,  37.250542,-122.392345,1,,0,
316005,316005,"Stage Rd & Pescadero Creek Rd",,  37.251775,-122.382835,1,,0,
316010,316010,"Pescadero Creek Rd & Hwy 1",,  37.259815,-122.413015,1,,0,
316603,316603,"741 Main St-Ides Hall",,  37.460050,-122.429840,1,,0,
316902,316902,"Hwy 84 & Hwy 1",,  37.324404,-122.399359,1,,0,
316903,316903,"Hwy 84 & Stage Rd",,  37.326860,-122.386755,1,,0,
321001,321001,"Canada College",,  37.448957,-122.265122,1,,0,
321005,321005,"Farm Hill Blvd & Woodhill Dr",,  37.447848,-122.260159,1,,0,
321006,321006,"Farm Hill Blvd & Canada College Loop Rd",,  37.448335,-122.260457,1,,0,
321106,321106,"Woodside Rd & Churchill Ave",,  37.444662,-122.234135,1,,0,
321107,321107,"Woodside Rd & Churchill Ave",,  37.444684,-122.234476,1,,0,
331001,331001,"10th St & Bryant St",,  37.769979,-122.409406,2,,0,
331003,331003,"10th St & Howard St",,  37.773645,-122.414003,2,,0,
331006,331006,"19th Ave & Winston Dr",,  37.726296,-122.475195,2,,0,
331015,331015,"9th St & Folsom St",,  37.774021,-122.411777,2,,0,
331017,331017,"9th St & Harrison St",,  37.772774,-122.410213,2,,0,
331019,331019,"Mission St & 2nd St",,  37.787990,-122.400080,2,,0,
331044,331044,"Lake Merced Blvd & Font Blvd",,  37.724213,-122.485227,2,,0,
331045,331045,"Lake Merced Blvd & Higuera Ave",,  37.718145,-122.485280,2,,0,
331059,331059,"Mission St & 1st St",,  37.790137,-122.396950,2,,0,
331060,331060,"The Embarcadero & Mission St",,  37.794421,-122.392930,1,,0,
331061,331061,"Drumm St & Clay St",,  37.795578,-122.396908,2,,0,
331062,331062,"Market St & Spear St",,  37.794136,-122.395101,2,,0,
331067,331067,"Mission St & 2nd St",,  37.787785,-122.399926,2,,0,
331070,331070,"Mission St & 3rd St",,  37.785300,-122.403408,2,,0,
331071,331071,"Mission St & 3rd St",,  37.786572,-122.401433,2,,0,
331100,331100,"SF Transit Center - BART shuttle connection",,  37.790452,-122.393340,2,,0,
331416,331416,"Mission St & 9th St",,  37.776533,-122.414193,2,,0,
331417,331417,"Mission St & 8th St",,  37.777616,-122.412820,2,,0,
331418,331418,"Mission St & 7th St",,  37.779354,-122.410526,2,,0,
331419,331419,"Mission St & 5th St",,  37.782456,-122.406687,2,,0,
331420,331420,"Mission St & 5th St",,  37.782362,-122.407083,2,,0,
331421,331421,"Mission St & 7th St",,  37.778696,-122.411721,2,,0,
331422,331422,"Mission St & 9th St",,  37.775921,-122.415250,2,,0,
331430,331430,"Mission St & Sickles Ave",,  37.708708,-122.453277,2,,0,
331437,331437,"Mission St & 4th St",,  37.784532,-122.404034,2,,0,
331504,331504,"Winston Dr & Buckingham Way",,  37.727858,-122.478709,2,,0,
331525,331525,"280 Buckingham Way",,  37.727174,-122.480040,2,,0,
331526,331526,"Lake Merced Blvd & Brotherhood Way",,  37.713527,-122.485154,2,,0,
331527,331527,"Lake Merced Blvd & Brotherhood Way",,  37.713988,-122.485488,2,,0,
331528,331528,"Lake Merced Blvd & Higuera Ave",,  37.718678,-122.484967,2,,0,
331529,331529,"Winston Dr & Lake Merced Blvd",,  37.726980,-122.483327,2,,0,
331531,331531,"Bayshore Blvd & Cortland Ave",,  37.739829,-122.406774,2,,0,
331532,331532,"Bayshore Blvd & Oakdale Ave",,  37.743228,-122.405320,2,,0,
331533,331533,"Potrero Ave & 24th St",,  37.752641,-122.406447,2,,0,
331534,331534,"Potrero Ave & 22nd St",,  37.757615,-122.407019,2,,0,
331535,331535,"Potrero Ave & Mariposa",,  37.762954,-122.407414,2,,0,
331536,331536,"Potrero Ave & 16th St",,  37.765574,-122.407700,2,,0,
331537,331537,"Bayshore Blvd & Visitation Ave",,  37.710678,-122.403848,2,,0,
331538,331538,"Bayshore Blvd & Blanken Ave",,  37.712197,-122.401837,2,,0,
331539,331539,"Bayshore Blvd & Industrial St",,  37.738982,-122.406843,2,,0,
331541,331541,"Potrero Ave & 24th St",,  37.753451,-122.406251,2,,0,
331542,331542,"Potrero Ave & 21st St",,  37.757970,-122.406708,2,,0,
331543,331543,"Potrero Ave & 18th St",,  37.763382,-122.407218,2,,0,
331544,331544,"Potrero Ave & 16th St",,  37.766112,-122.407450,2,,0,
331545,331545,"Bayshore Blvd & Arleta Ave",,  37.712304,-122.402890,2,,0,
331546,331546,"Bayshore Blvd & Sunnydale Ave",,  37.708813,-122.405330,1,,0,
331552,331552,"Bayshore Blvd & Silver Ave",,  37.733389,-122.404745,2,,0,
331553,331553,"Bayshore Blvd & Agusta Ave",,  37.733989,-122.405420,2,,0,
331555,331555,"Lake Merced Blvd & Lake Merced Hill",,  37.711588,-122.485250,2,,0,
331556,331556,"Lake Merced Blvd & Lake Merced Hill",,  37.711404,-122.485487,2,,0,
331557,331557,"Bayshore Blvd & Flower St",,  37.742350,-122.405592,2,,0,
331601,331601,"Mission St & 1st St",,  37.790101,-122.397283,2,,0,
331605,331605,"Bayshore Blvd & Fitzgerald Ave",,  37.726477,-122.401683,2,,0,
331606,331606,"Bayshore Blvd & Fitzgerald Ave",,  37.726393,-122.401837,2,,0,
331609,331609,"11th St & Market St.",,  37.775180,-122.418450,2,,0,
331613,331613,"Lake Merced Blvd & Font Blvd",,  37.724510,-122.484780,2,,0,
332001,332001,"87th St & Nimitz Dr",,  37.693140,-122.480460,1,,0,
332002,332002,"87th St & Park Plaza Dr",,  37.693301,-122.480546,1,,0,
332003,332003,"Alta Loma Ave & Eastmoor Ave",,  37.684521,-122.479414,1,,0,
332004,332004,"Alta Loma Ave & Eastmoor Ave",,  37.684473,-122.479287,1,,0,
332005,332005,"Alta Loma Ave & Saint Francis Blvd",,  37.681889,-122.478456,1,,0,
332006,332006,"Bellevue Ave & Guttenberg St",,  37.707964,-122.442118,1,,0,
332014,332014,"Daly City BART-Bay 1",,  37.706220,-122.468854,1,,0,
332019,332019,"Daly City BART-Bay 3",,  37.706122,-122.468737,1,,0,
332021,332021,"Daly City BART-Bay 4",,  37.705963,-122.468885,1,,0,
332023,332023,"Bayshore Blvd & Geneva Ave",,  37.704000,-122.407517,1,,0,
332027,332027,"Belcrest Ave & Longview Dr",,  37.664438,-122.489016,1,,0,
332032,332032,"Bellevue Ave & Acton St",,  37.705149,-122.450401,1,,0,
332033,332033,"Bellevue Ave & Acton St",,  37.705316,-122.450246,1,,0,
332036,332036,"Alta Loma Ave & Saint Francis Blvd",,  37.681575,-122.478350,1,,0,
332037,332037,"Bellevue Ave & Lowell St",,  37.707232,-122.444617,1,,0,
332038,332038,"Bellevue Ave & Pope St",,  37.708246,-122.440715,1,,0,
332042,332042,"Bellevue Ave & Whittier St",,  37.706493,-122.446404,1,,0,
332043,332043,"Bellevue Ave & Whittier St",,  37.706552,-122.446593,1,,0,
332046,332046,"Pope St & Bellevue Ave",,  37.707367,-122.441146,1,,0,
332048,332048,"Brunswick St & Templeton Ave",,  37.707179,-122.453043,1,,0,
332052,332052,"Buena Vista Ave & Camelia Dr",,  37.682043,-122.476747,1,,0,
332072,332072,"Chester St & Abbot Ave",,  37.688386,-122.457740,1,,0,
332073,332073,"Chester St & Abbot Ave",,  37.688350,-122.457967,1,,0,
332074,332074,"Chester St & Villa St",,  37.686975,-122.458968,1,,0,
332075,332075,"Chester St & Villa St",,  37.686603,-122.459456,1,,0,
332077,332077,"Crenshaw Dr & Skyline Dr",,  37.660838,-122.488156,1,,0,
332078,332078,"Crenshaw Dr & Skyline Dr",,  37.660928,-122.488274,1,,0,
332086,332086,"Eastmoor Ave & Camelia Dr",,  37.684692,-122.476380,1,,0,
332087,332087,"Eastmoor Ave & Sullivan Ave",,  37.684632,-122.473215,1,,0,
332088,332088,"Eastmoor Ave & Sullivan Ave",,  37.684488,-122.473204,1,,0,
332089,332089,"Eastmoor Ave & Mirada Dr",,  37.684575,-122.475938,1,,0,
332095,332095,"E Market St & 1st Ave",,  37.689653,-122.464446,1,,0,
332097,332097,"E Market St & Hillside Blvd",,  37.690166,-122.460948,1,,0,
332107,332107,"332 Gellert Blvd",,  37.667627,-122.468862,1,,0,
332110,332110,"Gellert Blvd & Hickey Blvd",,  37.664045,-122.469334,1,,0,
332111,332111,"Gellert Blvd & Hickey Blvd",,  37.664851,-122.468871,1,,0,
332112,332112,"Gellert Blvd & Margate St",,  37.658116,-122.466516,1,,0,
332113,332113,"Gellert Blvd & Margate St",,  37.658009,-122.466709,1,,0,
332114,332114,"Gellert Blvd & Serramonte Blvd",,  37.667608,-122.468572,1,,0,
332116,332116,"Gellert Blvd & S Lycett St",,  37.655849,-122.463733,1,,0,
332117,332117,"Gellert Blvd & S Lycett St",,  37.655602,-122.463746,1,,0,
332118,332118,"Gellert Blvd & Verducci Dr",,  37.653077,-122.459759,1,,0,
332119,332119,"Gellert Blvd & Verducci Dr",,  37.652965,-122.459960,1,,0,
332120,332120,"Gellert Blvd & Victoria St",,  37.661690,-122.468888,1,,0,
332121,332121,"Gellert Blvd & Victoria St",,  37.661121,-122.468832,1,,0,
332122,332122,"Gellert Blvd & Warwick St",,  37.654001,-122.461704,1,,0,
332123,332123,"Gellert Blvd & Warwick St",,  37.654115,-122.461534,1,,0,
332131,332131,"Hickey Blvd & Hwy 280",,  37.663580,-122.464949,1,,0,
332132,332132,"Hickey Blvd & Callan Blvd",,  37.665352,-122.474158,1,,0,
332134,332134,"Hickey Blvd & Campus Dr",,  37.664800,-122.475488,1,,0,
332141,332141,"Hickey Blvd & Saint Francis Blvd",,  37.663043,-122.475803,1,,0,
332143,332143,"Hickey Blvd & Saint Francis Blvd",,  37.664415,-122.475461,1,,0,
332151,332151,"Hillside Blvd & Alp Ave",,  37.701746,-122.462321,1,,0,
332152,332152,"Hillside Blvd & Bismark St",,  37.696255,-122.461891,1,,0,
332153,332153,"Hillside Blvd & Bismark St",,  37.695711,-122.462133,1,,0,
332154,332154,"Hillside Blvd & Brunswick St",,  37.704336,-122.462004,1,,0,
332155,332155,"Hillside Blvd & Brunswick St",,  37.704224,-122.462143,1,,0,
332156,332156,"Hillside Blvd & Cottonwood Dr",,  37.702150,-122.462209,1,,0,
332157,332157,"Hillside Blvd & Gambetta St",,  37.699153,-122.462040,1,,0,
332158,332158,"Hillside Blvd & Gambetta St",,  37.698627,-122.462261,1,,0,
332159,332159,"Hillside Blvd & Price St",,  37.692756,-122.461850,1,,0,
332160,332160,"Hillside Blvd & Price St",,  37.693311,-122.461683,1,,0,
332161,332161,"Hillside Blvd & Sylvan St",,  37.688098,-122.460525,1,,0,
332162,332162,"Hillside Blvd & Valley St",,  37.688534,-122.460881,1,,0,
332163,332163,"Hoffman St & Lausanne Ave-The Franciscan",,  37.689175,-122.455054,1,,0,
332164,332164,"Hoffman St & Lausanne Ave-The Franciscan",,  37.689053,-122.455026,1,,0,
332165,332165,"John Daly Blvd & Cliffside Dr",,  37.702128,-122.482705,1,,0,
332166,332166,"John Daly Blvd & Dorchester Dr",,  37.699940,-122.489370,1,,0,
332167,332167,"John Daly Blvd & Eastgate Dr",,  37.699853,-122.490436,1,,0,
332168,332168,"John Daly Blvd & Lake Merced Blvd",,  37.701024,-122.485629,1,,0,
332169,332169,"John Daly Blvd & Lake Merced Blvd",,  37.701142,-122.486106,1,,0,
332172,332172,"John Daly Blvd & Park Plaza Dr",,  37.702202,-122.481533,1,,0,
332173,332173,"John Daly Blvd & Poncetta Dr",,  37.703814,-122.476102,1,,0,
332175,332175,"John Daly Blvd & Sheffield Dr",,  37.704135,-122.475953,1,,0,
332178,332178,"Junipero Serra Blvd & 87th St",,  37.693517,-122.471144,1,,0,
332184,332184,"Junipero Serra Blvd & School St",,  37.693580,-122.470920,1,,0,
332186,332186,"Junipero Serra Blvd & Serramonte Blvd",,  37.671175,-122.464663,1,,0,
332188,332188,"Junipero Serra Blvd & Citrus Ave",,  37.697292,-122.470656,1,,0,
332189,332189,"King Dr & Camelot Ct",,  37.649995,-122.460146,1,,0,
332190,332190,"King Dr & Gellert Blvd",,  37.650296,-122.456103,1,,0,
332191,332191,"King Dr & Verducci Dr",,  37.650308,-122.463153,1,,0,
332192,332192,"Lake Merced Blvd & John Daly Blvd",,  37.700947,-122.484481,1,,0,
332193,332193,"Lake Merced Blvd & John Daly Blvd",,  37.700850,-122.484680,1,,0,
332194,332194,"Lake Merced Blvd & Southgate Ave",,  37.698083,-122.483111,1,,0,
332200,332200,"Longview Dr & Westline Dr",,  37.665838,-122.489330,1,,0,
332205,332205,"Maddux Dr & Foothill Dr",,  37.695071,-122.486079,1,,0,
332206,332206,"Maddux Dr & Foothill Dr",,  37.695014,-122.486320,1,,0,
332207,332207,"Maddux Dr & Stewart Ave",,  37.694022,-122.482321,1,,0,
332208,332208,"Maddux Dr & Stewart Ave",,  37.694120,-122.482394,1,,0,
332209,332209,"Seton Medical Ctr-Daly City",,  37.678964,-122.474789,1,,0,
332214,332214,"Mission St & Bismark St",,  37.696305,-122.464398,1,,0,
332215,332215,"Mission St & Bismark St",,  37.695921,-122.464761,1,,0,
332216,332216,"Mission St & Alp Ave",,  37.702545,-122.462945,1,,0,
332218,332218,"Mission St & Flournoy St",,  37.706419,-122.459780,1,,0,
332220,332220,"Mission St & Eastlake Ave",,  37.699809,-122.463663,1,,0,
332221,332221,"Mission St & Evergreen Ave-Daly City",,  37.707388,-122.456534,1,,0,
332225,332225,"Mission St & Goethe St",,  37.707404,-122.457104,1,,0,
332227,332227,"Mission St & John Daly Blvd",,  37.705272,-122.462343,1,,0,
332230,332230,"Mission St & E Market St",,  37.689194,-122.465890,1,,0,
332232,332232,"Mission St & Parkview Ave",,  37.701678,-122.463454,1,,0,
332233,332233,"Mission St & Price St",,  37.692820,-122.464928,1,,0,
332234,332234,"Mission St & San Pedro Ave",,  37.688820,-122.466241,1,,0,
332235,332235,"Mission St & School St",,  37.693500,-122.465157,1,,0,
332238,332238,"Mission St & Westlake Ave",,  37.699581,-122.464039,1,,0,
332243,332243,"Orange St & Chester St",,  37.690835,-122.455476,1,,0,
332244,332244,"Orange St & Chester St",,  37.690788,-122.455527,1,,0,
332245,332245,"Orange St & E Market St",,  37.691517,-122.456882,1,,0,
332246,332246,"Orange St & E Market St",,  37.691582,-122.456804,1,,0,
332247,332247,"Park Plaza Dr & John Daly Blvd",,  37.701105,-122.481733,1,,0,
332252,332252,"San Fernando Way & Seton Medical Ctr Rear Entrance",,  37.680339,-122.475607,1,,0,
332255,332255,"San Pedro Rd & Hill St",,  37.686823,-122.469278,1,,0,
332263,332263,"Serramonte Blvd & Callan Blvd",,  37.669532,-122.475177,1,,0,
332264,332264,"Serramonte Blvd & Callan Blvd",,  37.669331,-122.474849,1,,0,
332266,332266,"Serramonte Blvd & Hwy 1",,  37.669172,-122.478029,1,,0,
332267,332267,"Serramonte Blvd & Hwy 1",,  37.669355,-122.478321,1,,0,
332269,332269,"Serramonte Blvd & Saint Francis Blvd",,  37.669003,-122.479686,1,,0,
332270,332270,"Serramonte Blvd & Saint Francis Blvd",,  37.669154,-122.479787,1,,0,
332287,332287,"317 Skyline Dr",,  37.688087,-122.490795,1,,0,
332289,332289,"Skyline Dr & Arcadia Dr",,  37.661981,-122.485666,1,,0,
332290,332290,"Skyline Dr & Arcadia Dr",,  37.661702,-122.486552,1,,0,
332291,332291,"Skyline Dr & Belcrest Ave",,  37.664232,-122.486546,1,,0,
332292,332292,"Skyline Dr & Belcrest Ave",,  37.664180,-122.486666,1,,0,
332293,332293,"Skyline Dr & Highland Ave",,  37.678899,-122.490947,1,,0,
332294,332294,"Skyline Dr & Highland Ave",,  37.679095,-122.490804,1,,0,
332295,332295,"969 Skyline Dr",,  37.667732,-122.486752,1,,0,
332296,332296,"Skyline Dr & Menlo Ave",,  37.675705,-122.490532,1,,0,
332297,332297,"Skyline Dr & Menlo Ave",,  37.676077,-122.490519,1,,0,
332298,332298,"Skyline Dr & Oceanside Dr",,  37.671797,-122.488726,1,,0,
332299,332299,"Skyline Dr & Oceanside Dr",,  37.671730,-122.488833,1,,0,
332300,332300,"Skyline Dr & Palisades Dr",,  37.688386,-122.491259,1,,0,
332301,332301,"Skyline Dr & Upland Ave",,  37.685807,-122.489659,1,,0,
332302,332302,"Skyline Dr & Upland Ave",,  37.685688,-122.489796,1,,0,
332303,332303,"Skyline Dr & Westmoor Ave",,  37.683355,-122.490217,1,,0,
332304,332304,"Skyline Dr & Westmoor Ave",,  37.683740,-122.490014,1,,0,
332308,332308,"Southgate Ave & Cerro Dr",,  37.675550,-122.475929,1,,0,
332309,332309,"Southgate Ave & Glenrose Ave",,  37.694583,-122.491398,1,,0,
332310,332310,"Southgate Ave & Lake Merced Blvd",,  37.697631,-122.483476,1,,0,
332311,332311,"Southgate Ave & Lakeshire Dr",,  37.676195,-122.483779,1,,0,
332312,332312,"Southgate Ave & Lakeshire Dr",,  37.676035,-122.483123,1,,0,
332313,332313,"Southgate Ave & Lakewood Dr",,  37.697112,-122.490777,1,,0,
332314,332314,"Southgate Ave & Lincoln Ave",,  37.678619,-122.486823,1,,0,
332315,332315,"Southgate Ave & Lincoln Ave",,  37.678768,-122.486999,1,,0,
332317,332317,"Southgate Ave & Montrose Ave",,  37.688902,-122.488842,1,,0,
332318,332318,"Southgate Ave & Ocean Grove Ave",,  37.685676,-122.487284,1,,0,
332319,332319,"Southgate Ave & Westmoor Ave",,  37.682757,-122.487173,1,,0,
332320,332320,"Southgate Ave & Westmoor Ave",,  37.682698,-122.487004,1,,0,
332321,332321,"Southgate Ave & Westridge Ave",,  37.691114,-122.491020,1,,0,
332322,332322,"Southgate Ave & Maddux Dr",,  37.697412,-122.486269,1,,0,
332323,332323,"Southgate Ave & Windsor Dr",,  37.697275,-122.485471,1,,0,
332324,332324,"Southgate Ave & Cerro Dr",,  37.675696,-122.475819,1,,0,
332325,332325,"Southgate Ave & Crestline Ave",,  37.685484,-122.487077,1,,0,
332326,332326,"Southgate Ave & Creston Ave",,  37.693431,-122.491103,1,,0,
332327,332327,"Southgate Ave & El Dorado Dr",,  37.675531,-122.478700,1,,0,
332328,332328,"Southgate Ave & El Dorado Dr",,  37.675703,-122.478585,1,,0,
332329,332329,"Southgate Ave & Lakewood Dr",,  37.696991,-122.490669,1,,0,
332330,332330,"Southgate Ave & Montrose Ave",,  37.689248,-122.488920,1,,0,
332331,332331,"Southgate Ave & Westridge Ave",,  37.691621,-122.490936,1,,0,
332335,332335,"Saint Francis Blvd & Casa Ave",,  37.678118,-122.479070,1,,0,
332336,332336,"Saint Francis Blvd & Clarinada Ave",,  37.671014,-122.480246,1,,0,
332337,332337,"Saint Francis Blvd & Mariposa Ave",,  37.679799,-122.479076,1,,0,
332339,332339,"Saint Francis Blvd & Belhaven Ave",,  37.673490,-122.480258,1,,0,
332340,332340,"Saint Francis Blvd & San Miguel Ave",,  37.674456,-122.480054,1,,0,
332341,332341,"Saint Francis Blvd & Casa Ave",,  37.678536,-122.478886,1,,0,
332342,332342,"Saint Francis Blvd & Clarinada Ave",,  37.670994,-122.480032,1,,0,
332343,332343,"Saint Francis Blvd & Mariposa Ave",,  37.680086,-122.478894,1,,0,
332344,332344,"Saint Francis Blvd & Southgate Ave",,  37.675586,-122.479872,1,,0,
332345,332345,"Saint Francis Blvd & Southgate Ave",,  37.675538,-122.479695,1,,0,
332346,332346,"Sullivan Ave & Southgate Ave",,  37.676689,-122.473433,1,,0,
332347,332347,"Sullivan Ave & Southgate Ave",,  37.676158,-122.473302,1,,0,
332348,332348,"Templeton Ave & Brunswick St",,  37.706806,-122.453666,1,,0,
332349,332349,"Templeton Ave & Hanover St",,  37.705987,-122.452627,1,,0,
332358,332358,"Washington St & 88th St",,  37.692230,-122.477884,1,,0,
332359,332359,"Washington St & 90th St",,  37.691164,-122.476801,1,,0,
332360,332360,"Washington St & Edgeworth Ave",,  37.687816,-122.474094,1,,0,
332361,332361,"Washington St & Edgeworth Ave",,  37.687950,-122.474151,1,,0,
332362,332362,"Washington St & Heather Rd",,  37.687829,-122.476863,1,,0,
332363,332363,"Washington St & Louvaine Dr",,  37.691094,-122.476922,1,,0,
332364,332364,"Washington St & MacArthur Dr",,  37.692123,-122.478038,1,,0,
332366,332366,"Washington St & Sullivan Ave",,  37.687833,-122.472838,1,,0,
332368,332368,"Washington St & Sweetwood",,  37.687924,-122.476698,1,,0,
332406,332406,"San Jose Ave & Bepler St",,  37.706065,-122.461502,1,,0,
332503,332503,"Bayshore Blvd & Geneva Ave",,  37.705125,-122.406599,1,,0,
332509,332509,"E Market St & 1st Ave",,  37.689824,-122.464545,1,,0,
332511,332511,"Southgate Ave & Sullivan Ave",,  37.675810,-122.474026,1,,0,
332512,332512,"Southgate Ave & Sullivan Ave",,  37.675739,-122.473501,1,,0,
332514,332514,"Gellert Blvd & Hickey Blvd",,  37.665165,-122.469094,1,,0,
332518,332518,"Edgeworth Ave & 90th St",,  37.691331,-122.474425,1,,0,
332519,332519,"Edgeworth Ave & 90th St",,  37.691207,-122.474533,1,,0,
332522,332522,"Skyline Dr & Westridge Ave",,  37.689981,-122.492973,1,,0,
332523,332523,"Skyline Dr & Westridge Ave",,  37.689853,-122.493014,1,,0,
332526,332526,"92nd St & Edgeworth Ave",,  37.689735,-122.474216,1,,0,
332527,332527,"Lake Merced Blvd & Westlake Park Dr",,  37.703638,-122.485824,1,,0,
332528,332528,"Lake Merced Blvd & Westlake Park Dr",,  37.704898,-122.486078,1,,0,
332532,332532,"Junipero Serra Blvd & John Daly Blvd",,  37.703272,-122.471092,1,,0,
332533,332533,"Serramonte Shopping Ctr-Bay 2",,  37.670440,-122.472099,1,,0,
332534,332534,"Serramonte Shopping Ctr-Bay 4",,  37.670518,-122.472037,1,,0,
332535,332535,"Serramonte Shopping Ctr-Bay 5",,  37.670180,-122.472051,1,,0,
332536,332536,"Serramonte Shopping Ctr-Bay 3",,  37.670610,-122.472082,1,,0,
332537,332537,"Serramonte Shopping Ctr-Bay 5",,  37.670294,-122.471992,1,,0,
332538,332538,"Serramonte Shopping Ctr-Bay 1",,  37.670280,-122.472119,1,,0,
332544,332544,"Mission St & Wellington Ave",,  37.705753,-122.461347,1,,0,
332555,332555,"E Market St & Wayandotte Ave",,  37.690530,-122.459682,1,,0,
332556,332556,"Bryant St & DMV Driveway",,  37.689073,-122.473213,1,,0,
332601,332601,"Bellevue Ave & Guttenberg St",,  37.707985,-122.442385,1,,0,
332602,332602,"Junipero Serra Blvd & Citrus Ave",,  37.698837,-122.470651,1,,0,
332603,332603,"1901 Junipero Serra Blvd-Century Theater",,  37.703060,-122.470682,1,,0,
332604,332604,"395 Hickey Blvd & Kaiser Medical Offices Driveway",,  37.663473,-122.462038,1,,0,
332605,332605,"Hickey Blvd & Kaiser Medical Offices Driveway",,  37.663635,-122.462322,1,,0,
332606,332606,"Templeton Ave & Brunswick St",,  37.706907,-122.453643,1,,0,
332607,332607,"92nd St & Bryant St",,  37.689662,-122.473637,1,,0,
332608,332608,"Longview Dr & Skyline Dr",,  37.667052,-122.486735,1,,0,
333004,333004,"El Camino Real & Colma Blvd",,  37.680129,-122.462066,1,,0,
333005,333005,"El Camino Real & Colma Blvd",,  37.679880,-122.461345,1,,0,
333006,333006,"El Camino Real & Old Mission Rd",,  37.674020,-122.454968,1,,0,
333007,333007,"El Camino Real & Old Mission Rd",,  37.673440,-122.454932,1,,0,
333010,333010,"El Camino Real & Serramonte Blvd",,  37.676326,-122.458203,1,,0,
333011,333011,"El Camino Real & Serramonte Blvd",,  37.676217,-122.457588,1,,0,
333014,333014,"Junipero Serra Blvd & Colma Blvd",,  37.677298,-122.469602,1,,0,
333015,333015,"Junipero Serra Blvd & Colma Park N Ride",,  37.682535,-122.470576,1,,0,
333017,333017,"Junipero Serra Blvd & Serra Ctr",,  37.673362,-122.466415,1,,0,
333018,333018,"Junipero Serra Blvd & Serra Ctr",,  37.673073,-122.466633,1,,0,
333502,333502,"Colma BART-Bay 2",,  37.684222,-122.465215,1,,0,
333503,333503,"Colma BART-Bay 3",,  37.684342,-122.465422,1,,0,
333504,333504,"Colma BART-Bay 4",,  37.684462,-122.465600,1,,0,
333505,333505,"Colma BART-Bay 5",,  37.684605,-122.465817,1,,0,
333506,333506,"Colma BART-Bay 6",,  37.684879,-122.466203,1,,0,
333508,333508,"Colma BART-Bay 8",,  37.685190,-122.466662,1,,0,
333509,333509,"Colma BART-Bay 9",,  37.684487,-122.465358,1,,0,
333510,333510,"Colma BART-Bay 10",,  37.684640,-122.465568,1,,0,
333511,333511,"Colma BART-Bay 11",,  37.684795,-122.465800,1,,0,
333512,333512,"Colma BART-Bay 12",,  37.685017,-122.466143,1,,0,
333513,333513,"Junipero Serra Blvd & Colma Blvd",,  37.677014,-122.469724,1,,0,
333515,333515,"San Pedro Rd & Mission St",,  37.689283,-122.466475,1,,0,
333516,333516,"El Camino Real & F St",,  37.682941,-122.463807,1,,0,
334002,334002,"Airport Blvd & Baden Ave",,  37.653868,-122.408025,1,,0,
334003,334003,"S Airport Blvd & Belle Air Rd",,  37.641221,-122.402262,1,,0,
334004,334004,"S Airport Blvd & Belle Air Rd",,  37.640627,-122.402243,1,,0,
334005,334005,"Airport Blvd & Butler Ave",,  37.663237,-122.400985,1,,0,
334006,334006,"Airport Blvd & E Grand Ave",,  37.654427,-122.408089,1,,0,
334007,334007,"255 S Airport Blvd-South SF Conference Ctr",,  37.647288,-122.405365,1,,0,
334008,334008,"Airport Blvd & Linden Ave",,  37.660716,-122.404561,1,,0,
334009,334009,"Airport Blvd & Linden Ave",,  37.660860,-122.404039,1,,0,
334010,334010,"Airport Blvd & Butler Ave",,  37.662851,-122.401060,1,,0,
334011,334011,"S Airport Blvd & Utah Ave",,  37.645537,-122.405195,1,,0,
334012,334012,"S Airport Blvd & Utah Ave",,  37.645548,-122.404887,1,,0,
334021,334021,"Armour Ave & Linden Ave",,  37.661548,-122.407515,1,,0,
334024,334024,"Arroyo Dr & Capay Cir",,  37.651854,-122.443357,1,,0,
334025,334025,"Arroyo Dr & Cuesta Dr",,  37.652002,-122.443379,1,,0,
334027,334027,"Arroyo Dr & El Camino Real",,  37.656171,-122.436755,1,,0,
334028,334028,"Arroyo Dr & Erica Dr",,  37.648824,-122.449032,1,,0,
334029,334029,"Arroyo Dr & Escanyo Dr",,  37.649761,-122.446332,1,,0,
334030,334030,"Arroyo Dr & Escanyo Dr",,  37.648532,-122.448465,1,,0,
334031,334031,"Arroyo Dr & Indio Dr",,  37.654320,-122.440080,1,,0,
334032,334032,"Arroyo Dr & Indio Dr",,  37.654245,-122.440463,1,,0,
334042,334042,"Callan Blvd & Olmstead Ct",,  37.646135,-122.464522,1,,0,
334043,334043,"Callan Blvd & Duhallow Way",,  37.645461,-122.464220,1,,0,
334044,334044,"Callan Blvd & Greendale Dr",,  37.648052,-122.466554,1,,0,
334046,334046,"Callan Blvd & Leix Way",,  37.648408,-122.467304,1,,0,
334047,334047,"Callan Blvd & Westborough Blvd",,  37.643532,-122.462767,1,,0,
334048,334048,"Callan Blvd & Westborough Blvd",,  37.643412,-122.462363,1,,0,
334073,334073,"El Camino Real & 1st St",,  37.653284,-122.432287,1,,0,
334074,334074,"El Camino Real & Arlington Dr",,  37.670139,-122.453087,1,,0,
334075,334075,"El Camino Real & Arlington Dr",,  37.670455,-122.453106,1,,0,
334076,334076,"El Camino & Arroyo Dr",,  37.656860,-122.436482,1,,0,
334077,334077,"El Camino & Arroyo Dr",,  37.656575,-122.436642,1,,0,
334078,334078,"El Camino Real & Brentwood Dr",,  37.641987,-122.424817,1,,0,
334079,334079,"El Camino Real & BART-South SF",,  37.663301,-122.444987,1,,0,
334080,334080,"El Camino Real & Country Club Dr",,  37.645655,-122.427538,1,,0,
334081,334081,"El Camino Real & Country Club Dr",,  37.646036,-122.427400,1,,0,
334082,334082,"El Camino Real & Hickey Blvd",,  37.665946,-122.451056,1,,0,
334083,334083,"El Camino Real & Hickey Blvd",,  37.666263,-122.450952,1,,0,
334084,334084,"1200 El Camino Real-Kaiser Med Ctr South SF",,  37.658627,-122.439480,1,,0,
334085,334085,"El Camino Real & Kaiser Hospital",,  37.658280,-122.439524,1,,0,
334086,334086,"El Camino Real & Costco",,  37.664352,-122.448701,1,,0,
334087,334087,"El Camino Real & McLellan Dr-South SF BART",,  37.663357,-122.446594,1,,0,
334088,334088,"El Camino Real & Southwood Dr",,  37.652805,-122.432410,1,,0,
334089,334089,"El Camino Real & Spruce Ave",,  37.643042,-122.425152,1,,0,
334090,334090,"El Camino Real & W Orange Ave",,  37.650339,-122.430829,1,,0,
334091,334091,"El Camino Real & W Orange Ave",,  37.650020,-122.430224,1,,0,
334112,334112,"Gellert Blvd & Delvin Way",,  37.639069,-122.446544,1,,0,
334114,334114,"Gellert Blvd & Kenry Way",,  37.641424,-122.448497,1,,0,
334116,334116,"Gellert Blvd & Westborough Blvd",,  37.642884,-122.452157,1,,0,
334117,334117,"Gellert Blvd & Westborough Blvd",,  37.642908,-122.452602,1,,0,
334118,334118,"Gellert Blvd & Wexford Ave",,  37.642381,-122.450736,1,,0,
334119,334119,"Gellert Blvd & Wexford Ave",,  37.642016,-122.450163,1,,0,
334120,334120,"Grand Ave & Chestnut Ave",,  37.659577,-122.430354,1,,0,
334121,334121,"Grand Ave & Chestnut Ave",,  37.659761,-122.430543,1,,0,
334122,334122,"Grand Ave & Eucalyptus Ave",,  37.658692,-122.426328,1,,0,
334123,334123,"Grand Ave & Eucalyptus Ave",,  37.658917,-122.426750,1,,0,
334124,334124,"Grand Ave & Linden Ave",,  37.655293,-122.410391,1,,0,
334125,334125,"Grand Ave & Magnolia Ave",,  37.657376,-122.419780,1,,0,
334126,334126,"Grand Ave & Magnolia Ave",,  37.657146,-122.419371,1,,0,
334127,334127,"Grand Ave & Maple Ave",,  37.655823,-122.412735,1,,0,
334128,334128,"Grand Ave & Maple Ave",,  37.655577,-122.412260,1,,0,
334129,334129,"Grand Ave & Orange Ave",,  37.657912,-122.422821,1,,0,
334130,334130,"Grand Ave & Orange Ave",,  37.658148,-122.423257,1,,0,
334131,334131,"Grand Ave & Spruce Ave",,  37.656352,-122.415760,1,,0,
334132,334132,"Grand Ave & Spruce Ave",,  37.656616,-122.416304,1,,0,
334133,334133,"Grand Ave & Willow Ave",,  37.659846,-122.433047,1,,0,
334134,334134,"Grand Ave & Willow Ave",,  37.659753,-122.433268,1,,0,
334151,334151,"Hickey Blvd & Camaritas Ave",,  37.666288,-122.453068,1,,0,
334152,334152,"Hickey Blvd & Longford Dr",,  37.665371,-122.460246,1,,0,
334153,334153,"Hickey Blvd & Longford Dr",,  37.664415,-122.460913,1,,0,
334174,334174,"King Dr & Fairfax Way",,  37.649763,-122.459948,1,,0,
334175,334175,"King Dr & Gellert Blvd",,  37.650023,-122.456206,1,,0,
334179,334179,"King Dr & Stein Ct",,  37.650115,-122.462665,1,,0,
334180,334180,"Linden Ave & Armour Ave",,  37.661467,-122.407836,1,,0,
334181,334181,"Linden Ave & Aspen Ave",,  37.660148,-122.408295,1,,0,
334182,334182,"Linden Ave & Aspen Ave",,  37.659800,-122.408559,1,,0,
334183,334183,"Linden Ave & California Ave",,  37.658162,-122.409000,1,,0,
334184,334184,"Linden Ave & California Ave",,  37.658201,-122.409124,1,,0,
334185,334185,"Linden Ave & Miller Ave",,  37.656357,-122.409775,1,,0,
334186,334186,"Linden Ave & Miller Ave",,  37.656351,-122.409618,1,,0,
334201,334201,"Mission Rd & Holly Ave",,  37.660791,-122.438241,1,,0,
334202,334202,"Mission Rd & Holly Ave",,  37.660970,-122.438251,1,,0,
334208,334208,"Oakmont Dr & Bantry Lane",,  37.642058,-122.461700,1,,0,
334210,334210,"Oakmont Dr & Westborough Blvd",,  37.642390,-122.462140,1,,0,
334232,334232,"Shannon Dr & Dublin Dr",,  37.640239,-122.457194,1,,0,
334233,334233,"Shannon Dr & Dublin Dr",,  37.640217,-122.457410,1,,0,
334234,334234,"Shannon Dr & Oakmont Dr",,  37.640406,-122.460517,1,,0,
334235,334235,"Shannon Dr & Oakmont Dr",,  37.640595,-122.460332,1,,0,
334236,334236,"Shannon Dr & Olympic Dr",,  37.638978,-122.454228,1,,0,
334237,334237,"Shannon Dr & Olympic Dr",,  37.638919,-122.454708,1,,0,
334238,334238,"Shannon Dr & Orrey Way",,  37.636796,-122.451150,1,,0,
334239,334239,"Shannon Dr & Orrey Way",,  37.636991,-122.451247,1,,0,
334241,334241,"Shannon Dr & Wexford Ave",,  37.637132,-122.447417,1,,0,
334242,334242,"Spruce Ave & Baden Ave",,  37.655251,-122.416506,1,,0,
334244,334244,"Spruce Ave & North Canal St",,  37.652050,-122.417466,1,,0,
334245,334245,"Spruce Ave & Orowheat Co",,  37.646705,-122.420706,1,,0,
334246,334246,"S Spruce Ave & Railroad Ave",,  37.654002,-122.416792,1,,0,
334247,334247,"S Spruce Ave & Victory Ave",,  37.648726,-122.418840,1,,0,
334248,334248,"S Spruce Ave & Victory Ave",,  37.647916,-122.419090,1,,0,
334400,334400,"Huntington Ave & Spruce Ave",,  37.644191,-122.421561,1,,0,
334401,334401,"Huntington Ave & Spruce Ave",,  37.643805,-122.421499,1,,0,
334410,334410,"El Camino Real & Alta Loma Stairway",,  37.661748,-122.443469,1,,0,
334500,334500,"264 S Airport Blvd-Four Points Sheraton Hotel",,  37.647728,-122.405689,1,,0,
334533,334533,"Gellert Blvd & Sunrise Ct",,  37.641393,-122.448076,1,,0,
334534,334534,"S Spruce Ave & N Canal St",,  37.651814,-122.417747,1,,0,
334535,334535,"Arroyo Dr & Capay Cir",,  37.649840,-122.445967,1,,0,
334537,334537,"Callan Blvd & King Dr",,  37.650137,-122.468766,1,,0,
334611,334611,"SamTrans N Dvwy & N Access Rd-Safe Harbor Shelter",,  37.639383,-122.391398,1,,0,
334612,334612,"SamTrans N Dvwy & N Access Rd-Safe Harbor Shelter",,  37.639399,-122.391534,1,,0,
334613,334613,"Callan Blvd & King Dr",,  37.650043,-122.468899,1,,0,
334617,334617,"South SF BART-Bay 2 Westside Busway",,  37.663742,-122.443535,1,,0,
334618,334618,"South SF BART-Bay 3 Westside Busway",,  37.663887,-122.443763,1,,0,
334620,334620,"South SF BART-Bay 5 Westside Busway",,  37.664380,-122.444582,1,,0,
334627,334627,"Gellert Blvd & Delvin Way",,  37.638898,-122.446298,1,,0,
334635,334635,"Airport Blvd & Tower Pl",,  37.665975,-122.397522,1,,0,
335009,335009,"220 Allen Dr",,  37.630396,-122.457299,1,,0,
335010,335010,"231 Allen Dr",,  37.630437,-122.457696,1,,0,
335012,335012,"Allen Dr & Ross Way",,  37.631554,-122.459330,1,,0,
335013,335013,"Allen Dr & Ross Way",,  37.631993,-122.459340,1,,0,
335021,335021,"Cherry Ave & Grundy Ln",,  37.628291,-122.425579,1,,0,
335022,335022,"Cherry Ave & Bay Hill Dr-Bay Hill Shopping Ctr",,  37.626814,-122.425141,1,,0,
335023,335023,"Cherry Ave & Hickory Ave",,  37.625013,-122.423839,1,,0,
335024,335024,"Cherry Ave & Park Ave",,  37.621976,-122.421794,1,,0,
335026,335026,"Cherry Ave & Peninsula Pl",,  37.631967,-122.428132,1,,0,
335027,335027,"Cherry Ave & Sneath Ln",,  37.632482,-122.428136,1,,0,
335033,335033,"College Dr & Allen Dr",,  37.632325,-122.459044,1,,0,
335036,335036,"College Dr & Sheryl Dr",,  37.632465,-122.459782,1,,0,
335062,335062,"El Camino Real & Angus Ave W",,  37.625430,-122.414194,1,,0,
335063,335063,"El Camino Real & Angus Ave W",,  37.625432,-122.414599,1,,0,
335065,335065,"El Camino Real & Crystal Springs Rd",,  37.620322,-122.410965,1,,0,
335067,335067,"El Camino Real & Hwy 380",,  37.631619,-122.418510,1,,0,
335070,335070,"El Camino Real & Jenevein Ave",,  37.622643,-122.412640,1,,0,
335071,335071,"El Camino Real & Jenevein Ave",,  37.622938,-122.412445,1,,0,
335073,335073,"El Camino Real & San Bruno Ave",,  37.629171,-122.416651,1,,0,
335074,335074,"El Camino Real & San Bruno Ave",,  37.628082,-122.416342,1,,0,
335075,335075,"El Camino Real & San Felipe Ave",,  37.617898,-122.408781,1,,0,
335076,335076,"El Camino Real & San Felipe Ave",,  37.617522,-122.408827,1,,0,
335077,335077,"El Camino Real & Santa Dominga Ave",,  37.615944,-122.406748,1,,0,
335078,335078,"El Camino Real & Santa Inez Ave",,  37.613770,-122.404692,1,,0,
335079,335079,"El Camino Real & Sneath Ln",,  37.636362,-122.421289,1,,0,
335080,335080,"El Camino Real & Sneath Ln",,  37.637857,-122.421694,1,,0,
335082,335082,"El Camino Real & Taylor Ave",,  37.620903,-122.410924,1,,0,
335097,335097,"Huntington Ave & Euclid Ave",,  37.632235,-122.413112,1,,0,
335098,335098,"Huntington Ave & Euclid Ave",,  37.632447,-122.412958,1,,0,
335099,335099,"Huntington Ave & Sneath Ln",,  37.640646,-122.419192,1,,0,
335103,335103,"Jenevein Ave & Beech Ave",,  37.620104,-122.418878,1,,0,
335104,335104,"Jenevein Ave & Chestnut Ave",,  37.620013,-122.419340,1,,0,
335106,335106,"Jenevein Ave & Cypress Ave",,  37.621123,-122.416612,1,,0,
335108,335108,"Jenevein Ave & El Camino Real",,  37.623238,-122.412217,1,,0,
335109,335109,"Jenevein Ave & Elm Ave",,  37.621842,-122.415277,1,,0,
335110,335110,"Longview Dr & Goodwin Dr",,  37.628690,-122.455536,1,,0,
335111,335111,"Longview Dr & Goodwin Dr",,  37.628823,-122.455847,1,,0,
335112,335112,"Longview Dr & Moreland Dr",,  37.630288,-122.454234,1,,0,
335113,335113,"Longview Dr & Moreland Dr",,  37.630563,-122.453983,1,,0,
335119,335119,"586 McDonnell Rd-Opposite UAL Cargo",,  37.615493,-122.395311,1,,0,
335121,335121,"McDonnell Rd & West Field Rd",,  37.622111,-122.399610,1,,0,
335122,335122,"McDonnell Rd & West Field Rd",,  37.621848,-122.399731,1,,0,
335141,335141,"Riverside Dr & Moreland Dr",,  37.628379,-122.453130,1,,0,
335143,335143,"2233 Rollingwood Dr",,  37.630787,-122.439863,1,,0,
335144,335144,"2260 Rollingwood Dr",,  37.631057,-122.439882,1,,0,
335145,335145,"Rollingwood Dr & Cottonwood Dr",,  37.629450,-122.444208,1,,0,
335146,335146,"Rollingwood Dr & Cottonwood Dr",,  37.629461,-122.443848,1,,0,
335147,335147,"Rollingwood Dr & Sneath Ln",,  37.630177,-122.436833,1,,0,
335151,335151,"Rollingwood Dr & Sequoia Ave",,  37.628823,-122.446038,1,,0,
335152,335152,"Rollingwood Dr & Sneath Ln",,  37.630278,-122.436562,1,,0,
335154,335154,"San Bruno Ave E & 3rd Ave",,  37.630905,-122.409872,1,,0,
335155,335155,"San Bruno Ave E & 3rd Ave",,  37.630808,-122.408871,1,,0,
335157,335157,"San Bruno Ave W & El Camino Real",,  37.628644,-122.417311,1,,0,
335160,335160,"San Bruno Ave W & Green Ave",,  37.629367,-122.414930,1,,0,
335161,335161,"San Bruno Ave W & Green Ave",,  37.629358,-122.415426,1,,0,
335162,335162,"SFO Airport Terminal 3-Lower Level",,  37.616675,-122.388285,1,,0,
335165,335165,"San Mateo Ave & Sylvan Ave",,  37.624418,-122.411160,1,,0,
335166,335166,"San Mateo Ave & Sylvan Ave",,  37.624658,-122.411267,1,,0,
335173,335173,"Skyline Blvd & Sharp Park Rd",,  37.639319,-122.464679,1,,0,
335184,335184,"Sneath Ln & Cherry Ave",,  37.633186,-122.429454,1,,0,
335186,335186,"Sneath Ln & Cherry Ave",,  37.633118,-122.429050,1,,0,
335187,335187,"Sneath Ln & Monterey Dr",,  37.624604,-122.448804,1,,0,
335193,335193,"S Airport Blvd & Airport Long Term Parking",,  37.636455,-122.399796,1,,0,
335196,335196,"S Airport Blvd & UAL Maintenance-Gate 78",,  37.636365,-122.399400,1,,0,
335204,335204,"Whitman Way & Shelter Creek Ln",,  37.617609,-122.424883,1,,0,
335401,335401,"Huntington Ave & Sneath Ln",,  37.639859,-122.419052,1,,0,
335500,335500,"Skyline Blvd & Westborough Blvd",,  37.639297,-122.464251,1,,0,
335503,335503,"SFO Airport Terminal 2-Lower Level",,  37.616795,-122.384193,1,,0,
335504,335504,"585 McDonnell Rd-UAL Cargo",,  37.615875,-122.395600,1,,0,
335508,335508,"McDonnell Rd & San Bruno Ave",,  37.632193,-122.398187,1,,0,
335525,335525,"McDonnell Rd & West Area Rd",,  37.626792,-122.401003,1,,0,
335600,335600,"Sequoia Ave & Rollingwood Dr",,  37.628406,-122.445772,1,,0,
335601,335601,"Sequoia Ave & Sneath Ln",,  37.625802,-122.443797,1,,0,
335602,335602,"Sequoia Ave & Fleetwood Dr",,  37.625955,-122.443703,1,,0,
335605,335605,"McDonnell Rd & San Bruno Ave",,  37.632446,-122.398588,1,,0,
335606,335606,"McDonnell Rd & West Area Rd",,  37.627012,-122.401330,1,,0,
335607,335607,"Huntington Ave East & Herman St",,  37.634508,-122.413864,1,,0,
335608,335608,"Huntington Ave East & Herman St",,  37.634040,-122.413827,1,,0,
335609,335609,"Sneath Ln & Claremont Dr",,  37.624957,-122.445729,1,,0,
335610,335610,"Sneath Ln & Earl Ave",,  37.624753,-122.445877,1,,0,
335611,335611,"Sneath Ln & Colusa Ct",,  37.626464,-122.450273,1,,0,
335612,335612,"Jenevein Ave & El Camino Real",,  37.623189,-122.412027,1,,0,
335613,335613,"Jenevein Ave & Elm Ave",,  37.622003,-122.414639,1,,0,
335616,335616,"Riverside Dr & Sneath Ln",,  37.627458,-122.452574,1,,0,
335617,335617,"Sneath Ln & Mendocino Ct",,  37.627257,-122.452087,1,,0,
335620,335620,"SFO Airport Terminal G-Lower Level",,  37.615824,-122.390399,1,,0,
335622,335622,"Sneath Ln & Colusa Ct",,  37.625933,-122.450171,1,,0,
335623,335623,"Sneath Ln & Monterey Dr",,  37.624064,-122.448400,1,,0,
335627,335627,"San Bruno BART-Bay 4",,  37.638816,-122.417160,1,,0,
335628,335628,"San Bruno BART-Bay 5",,  37.638662,-122.417066,1,,0,
335629,335629,"San Bruno BART-Bay 6",,  37.638529,-122.416983,1,,0,
335630,335630,"San Bruno BART-Bay 7 Outer Busway",,  37.639120,-122.417008,1,,0,
335631,335631,"San Bruno BART-Bay 8 Outer Busway",,  37.638953,-122.416925,1,,0,
335632,335632,"San Bruno BART-Bay 9",,  37.638790,-122.416866,1,,0,
335635,335635,"Sneath & Huntington Inbound BART",,  37.638500,-122.419135,1,,0,
335636,335636,"Sneath & Huntington Outbound BART",,  37.638990,-122.419046,1,,0,
335637,335637,"SFO Airport Terminal A-Lower Level",,  37.615019,-122.389293,1,,0,
335639,335639,"Skyline College Transit Ctr",,  37.629502,-122.466388,1,,0,
335640,335640,"Shelter Creek Ln & Fire Rd 1",,  37.622200,-122.427780,1,,0,
335641,335641,"Shelter Creek Ln & Fire Rd 2",,  37.620950,-122.426900,1,,0,
335642,335642,"Shelter Creek Ln & Fire Rd 3",,  37.619150,-122.425730,1,,0,
335643,335643,"SFO Rental Car Center Airtrain Station",,  37.627261,-122.400155,1,,0,
335647,335647,"San Mateo Ave & Kains Ave",,  37.628317,-122.411297,1,,0,
336026,336026,"El Camino Real & Capuchino Dr",,  37.611165,-122.402515,1,,0,
336027,336027,"El Camino Real & Center St-Millbrae",,  37.607458,-122.398854,1,,0,
336028,336028,"El Camino Real & Center St-Millbrae",,  37.607874,-122.398851,1,,0,
336029,336029,"El Camino Real & Hillcrest Blvd",,  37.602207,-122.391364,1,,0,
336031,336031,"El Camino Real & Meadow Glen Ave",,  37.606242,-122.396913,1,,0,
336032,336032,"El Camino Real & Meadow Glen Ave",,  37.605572,-122.396571,1,,0,
336034,336034,"El Camino Real & Linden Ave",,  37.599547,-122.388219,1,,0,
336035,336035,"El Camino Real & Millwood Dr",,  37.610269,-122.401256,1,,0,
336036,336036,"El Camino Real & Murchison Dr",,  37.597125,-122.386036,1,,0,
336037,336037,"El Camino Real & Park Pl",,  37.613530,-122.404865,1,,0,
336038,336038,"El Camino Real & Silva Ave",,  37.603827,-122.394229,1,,0,
336039,336039,"El Camino Real & Silva Ave",,  37.604044,-122.394124,1,,0,
336040,336040,"El Camino Real & Taylor Ave",,  37.602527,-122.392489,1,,0,
336623,336623,"Millbrae BART-Bay 12 West Busway",,  37.599495,-122.386561,1,,0,
336627,336627,"El Camino Real & Victoria Ave",,  37.600146,-122.389438,1,,0,
336628,336628,"El Camino Real & Victoria Ave",,  37.600826,-122.389844,1,,0,
340005,340005,"California Dr & Bellevue Ave",,  37.580536,-122.346790,1,,0,
340006,340006,"California Dr & North Ln",,  37.580018,-122.346072,1,,0,
340007,340007,"California Dr & Broadway",,  37.587099,-122.362094,1,,0,
340008,340008,"California Dr & Broadway",,  37.587197,-122.362851,1,,0,
340012,340012,"California Dr & Morrell Ave",,  37.584157,-122.355810,1,,0,
340013,340013,"California Dr & Morrell Ave",,  37.584336,-122.355764,1,,0,
340014,340014,"California Dr & Oak Grove Ave",,  37.582478,-122.351281,1,,0,
340015,340015,"California Dr & Oak Grove Ave",,  37.582130,-122.351053,1,,0,
340022,340022,"California Dr & Howard Ave",,  37.578956,-122.343680,1,,0,
340023,340023,"California Dr & Howard Ave",,  37.578959,-122.344082,1,,0,
340028,340028,"California Dr & Peninsula Ave",,  37.577194,-122.339524,1,,0,
340032,340032,"El Camino Real & Adeline Dr",,  37.589410,-122.375022,1,,0,
340033,340033,"El Camino Real & Adeline Dr",,  37.589257,-122.375054,1,,0,
340034,340034,"El Camino Real & Arc Way",,  37.580056,-122.358965,1,,0,
340035,340035,"El Camino Real & Bellevue Ave",,  37.577292,-122.353210,1,,0,
340036,340036,"El Camino Real & Bellevue Ave.",,  37.576924,-122.352397,1,,0,
340037,340037,"El Camino Real & Broadway-Burlingame",,  37.584154,-122.365967,1,,0,
340038,340038,"El Camino Real & Broadway-Burlingame",,  37.583967,-122.366001,1,,0,
340039,340039,"El Camino Real & Burlingame Ave",,  37.576574,-122.350446,1,,0,
340040,340040,"El Camino Real & Burlingame Ave",,  37.576146,-122.349376,1,,0,
340041,340041,"El Camino Real & Easton Dr",,  37.586134,-122.369530,1,,0,
340042,340042,"El Camino Real & Easton Dr",,  37.585870,-122.369327,1,,0,
340043,340043,"El Camino Real & Sanchez Ave",,  37.581401,-122.361476,1,,0,
340044,340044,"El Camino Real & Hillside Dr",,  37.587728,-122.372174,1,,0,
340045,340045,"El Camino Real & Hillside Dr",,  37.587336,-122.371717,1,,0,
340046,340046,"El Camino Real & Howard Ave",,  37.575959,-122.348021,1,,0,
340047,340047,"El Camino Real & Howard Ave",,  37.575657,-122.347527,1,,0,
340049,340049,"El Camino Real & Murchison Dr",,  37.596249,-122.385613,1,,0,
340050,340050,"El Camino Real & Oak Grove Ave-Burlingame",,  37.578864,-122.356521,1,,0,
340051,340051,"El Camino Real & Oak Grove Ave-Burlingame",,  37.578338,-122.355872,1,,0,
340052,340052,"El Camino Real & Palm Dr",,  37.580309,-122.359140,1,,0,
340053,340053,"El Camino Real & Ray Dr",,  37.590730,-122.377709,1,,0,
340054,340054,"El Camino Real & Rosedale Ave",,  37.591213,-122.378209,1,,0,
340055,340055,"El Camino Real & Sanchez Ave",,  37.582323,-122.362746,1,,0,
340057,340057,"El Camino Real & Trousdale Dr",,  37.594727,-122.383262,1,,0,
340058,340058,"El Camino Real & Trousdale Dr",,  37.594106,-122.382975,1,,0,
340089,340089,"Bayshore Hwy & Airport Blvd",,  37.591783,-122.362214,1,,0,
340090,340090,"Bayshore Hwy & Burlway Rd",,  37.596040,-122.365189,1,,0,
340091,340091,"Bayshore Hwy & Burlway Rd",,  37.596484,-122.365656,1,,0,
340092,340092,"1333 Bayshore Hwy-Hyatt Regency",,  37.593927,-122.364402,1,,0,
340093,340093,"Bayshore Hwy & Mitten Rd",,  37.602886,-122.372473,1,,0,
340094,340094,"Bayshore Hwy & Mitten Rd",,  37.602401,-122.371940,1,,0,
340095,340095,"Bayshore Hwy & One Bay Plz",,  37.594496,-122.364379,1,,0,
340096,340096,"Bayshore Hwy & Stanton Rd",,  37.601114,-122.369436,1,,0,
340097,340097,"Bayshore Hwy & Stanton Rd",,  37.600391,-122.368866,1,,0,
340600,340600,"Peninsula Ave & Bloomfield Rd",,  37.579186,-122.336455,1,,0,
340601,340601,"Delaware St & Peninsula Ave",,  37.579976,-122.333965,1,,0,
341002,341002,"1st Ave & B St",,  37.567218,-122.323738,1,,0,
341003,341003,"1st Ave & B St.",,  37.567253,-122.323858,1,,0,
341015,341015,"2nd Ave & San Mateo Dr",,  37.564872,-122.325196,1,,0,
341018,341018,"Alameda de las Pulgas & 36th Ave",,  37.530383,-122.307399,1,,0,
341023,341023,"E 3rd & Anchor Rd",,  37.570559,-122.290185,1,,0,
341024,341024,"E 3rd Ave & Anchor Rd",,  37.570409,-122.289146,1,,0,
341025,341025,"E 3rd Ave & S Fremont St",,  37.568257,-122.318563,1,,0,
341026,341026,"E 3rd Ave & S Humboldt St",,  37.569311,-122.317067,1,,0,
341027,341027,"E 3rd Ave & S Norfolk St",,  37.573388,-122.311274,1,,0,
341028,341028,"E 3rd Ave & S Norfolk St",,  37.573615,-122.310508,1,,0,
341029,341029,"E 4th Ave & N Delaware St",,  37.566469,-122.318928,1,,0,
341030,341030,"4th Ave & El Camino Real-San Mateo",,  37.562090,-122.325479,1,,0,
341031,341031,"4th Ave. & El Camino Real-San Mateo",,  37.562073,-122.325307,1,,0,
341032,341032,"S Claremont St & 2nd Ave",,  37.567142,-122.321610,1,,0,
341034,341034,"E 4th Ave & S Ellsworth Ave",,  37.564069,-122.322366,1,,0,
341039,341039,"Alameda de las Pulgas & W 20th Ave",,  37.545149,-122.320511,1,,0,
341040,341040,"Alameda de las Pulgas & 24th Ave",,  37.542357,-122.316448,1,,0,
341041,341041,"Alameda de las Pulgas & 26th Ave",,  37.540902,-122.315009,1,,0,
341042,341042,"Alameda de las Pulgas & 26th Ave",,  37.541222,-122.315067,1,,0,
341043,341043,"Alameda de las Pulgas & 28th Ave",,  37.538072,-122.312356,1,,0,
341044,341044,"Alameda de las Pulgas & 28th Ave",,  37.538118,-122.312120,1,,0,
341045,341045,"Alameda de las Pulgas & 31st Ave",,  37.534697,-122.309914,1,,0,
341046,341046,"Alameda de las Pulgas & 31st Ave",,  37.534268,-122.309914,1,,0,
341047,341047,"Alameda de las Pulgas & 36th Ave",,  37.530048,-122.306936,1,,0,
341048,341048,"Alameda de las Pulgas & 39th Ave",,  37.528027,-122.305636,1,,0,
341049,341049,"Alameda de las Pulgas & 39th Ave",,  37.527751,-122.305697,1,,0,
341050,341050,"Alameda de las Pulgas & 42nd Ave",,  37.524680,-122.303109,1,,0,
341051,341051,"Alameda de las Pulgas & 42nd Ave",,  37.525098,-122.303241,1,,0,
341052,341052,"Alameda de las Pulgas & Alta Ave",,  37.542253,-122.316757,1,,0,
341053,341053,"Alameda de las Pulgas & Castilian Way-Aragon HS",,  37.551731,-122.329032,1,,0,
341056,341056,"Alameda de las Pulgas & Georgetown Ave",,  37.552578,-122.330362,1,,0,
341058,341058,"Alameda de las Pulgas & Parkside Way",,  37.539479,-122.313481,1,,0,
341059,341059,"Alameda de las Pulgas & Portola Dr",,  37.539570,-122.313244,1,,0,
341060,341060,"Alameda de las Pulgas & Virginia Ave",,  37.553499,-122.333322,1,,0,
341061,341061,"Alameda de las Pulgas & Virginia Ave",,  37.553350,-122.333413,1,,0,
341081,341081,"CSM Transit Ctr",,  37.533785,-122.337045,1,,0,
341084,341084,"Casa De Campo & La Selva St",,  37.541087,-122.283828,1,,0,
341096,341096,"Dartmouth Rd & 5th Ave",,  37.559881,-122.327631,1,,0,
341097,341097,"Dartmouth Rd & 5th Ave",,  37.559923,-122.327537,1,,0,
341098,341098,"S Delaware St & 16th Ave",,  37.557461,-122.309654,1,,0,
341103,341103,"S Delaware St & 2nd Ave",,  37.568133,-122.321037,1,,0,
341104,341104,"S Delaware St & 10th Ave",,  37.562162,-122.314523,1,,0,
341105,341105,"S Delaware St & 3rd Ave",,  37.567248,-122.320300,1,,0,
341106,341106,"S Delaware St & Bermuda Dr",,  37.550925,-122.305002,1,,0,
341107,341107,"S Delaware St & Cypress Ave",,  37.569357,-122.322594,1,,0,
341109,341109,"N Delaware St & E Bellevue Ave",,  37.576163,-122.329864,1,,0,
341111,341111,"N Delaware St & Tilton Ave",,  37.570888,-122.324091,1,,0,
341121,341121,"El Camino Real & 12th Ave",,  37.556302,-122.318367,1,,0,
341123,341123,"El Camino Real & 17th Ave",,  37.552474,-122.314240,1,,0,
341124,341124,"El Camino Real & 20th Ave",,  37.548843,-122.310668,1,,0,
341125,341125,"El Camino Real & E 20th Ave",,  37.548703,-122.310076,1,,0,
341126,341126,"El Camino Real & E 25th Ave",,  37.543940,-122.305286,1,,0,
341127,341127,"El Camino Real & E 25th Ave",,  37.544785,-122.305762,1,,0,
341128,341128,"El Camino Real & 27th Ave",,  37.542377,-122.303670,1,,0,
341129,341129,"El Camino Real & 27th Ave",,  37.542468,-122.303381,1,,0,
341130,341130,"El Camino Real & 2nd Ave",,  37.563768,-122.326930,1,,0,
341132,341132,"El Camino Real & 2nd Ave",,  37.564145,-122.326973,1,,0,
341134,341134,"El Camino Real & 31st Ave-Hillsdale Shopping Ctr",,  37.538596,-122.299674,1,,0,
341135,341135,"El Camino Real & 31st Ave",,  37.540131,-122.300897,1,,0,
341136,341136,"El Camino Real & 37th Ave",,  37.534433,-122.294383,1,,0,
341137,341137,"El Camino Real & 37th Ave",,  37.534499,-122.294877,1,,0,
341138,341138,"El Camino Real & 39th Ave",,  37.533013,-122.292976,1,,0,
341139,341139,"El Camino Real & 39th Ave",,  37.532912,-122.292426,1,,0,
341140,341140,"El Camino Real & 41st Ave",,  37.531086,-122.290333,1,,0,
341141,341141,"El Camino Real & 42nd Ave",,  37.530704,-122.289392,1,,0,
341142,341142,"El Camino Real & 43rd Ave",,  37.529380,-122.287781,1,,0,
341143,341143,"El Camino Real & 4th Ave",,  37.561919,-122.324971,1,,0,
341145,341145,"El Camino Real & E 5th Ave",,  37.561947,-122.324614,1,,0,
341147,341147,"El Camino Real & 9th Ave",,  37.559202,-122.322014,1,,0,
341148,341148,"El Camino Real & 9th Ave",,  37.559539,-122.321979,1,,0,
341149,341149,"El Camino Real & 17th Ave",,  37.551834,-122.313886,1,,0,
341150,341150,"El Camino Real & Grand Blvd",,  37.571593,-122.338082,1,,0,
341151,341151,"El Camino Real & El Cerrito Ave",,  37.567024,-122.330207,1,,0,
341152,341152,"El Camino Real & Hillsdale Blvd",,  37.537881,-122.298087,1,,0,
341153,341153,"El Camino Real & Hillsdale Blvd",,  37.536236,-122.297005,1,,0,
341154,341154,"El Camino Real & Hobart Ave",,  37.555827,-122.318239,1,,0,
341156,341156,"El Camino Real & Poplar Ave",,  37.569734,-122.335156,1,,0,
341157,341157,"El Camino Real & Poplar Ave",,  37.570130,-122.335591,1,,0,
341158,341158,"El Camino Real & State St",,  37.573459,-122.340755,1,,0,
341159,341159,"El Camino Real & Tilton Ave",,  37.567399,-122.330541,1,,0,
341160,341160,"El Camino Real & Warren Rd",,  37.573359,-122.340884,1,,0,
341161,341161,"El Camino Real & Bellevue Ave",,  37.570895,-122.337354,1,,0,
341164,341164,"Franklin St & Virginia Ave",,  37.558774,-122.329180,1,,0,
341175,341175,"Hacienda St & 28th Ave",,  37.540181,-122.308246,1,,0,
341176,341176,"Hacienda St & 36th Ave",,  37.531979,-122.303270,1,,0,
341177,341177,"Hacienda St & 36th Ave",,  37.532296,-122.303618,1,,0,
341178,341178,"Hacienda St & W Hillsdale Blvd",,  37.533566,-122.304450,1,,0,
341179,341179,"Hwy 101 & 3rd Ave",,  37.570609,-122.313208,1,,0,
341180,341180,"Hwy 101 & 3rd Ave",,  37.571095,-122.314756,1,,0,
341183,341183,"W Hillsdale Blvd & Alameda de las Pulgas",,  37.532038,-122.307940,1,,0,
341184,341184,"W Hillsdale Blvd & Clearview Way",,  37.531753,-122.333464,1,,0,
341185,341185,"W Hillsdale Blvd & Clearview Way",,  37.531649,-122.332549,1,,0,
341186,341186,"E Hillsdale Blvd & Curtiss St",,  37.539490,-122.293632,1,,0,
341187,341187,"E Hillsdale Blvd & Curtiss St",,  37.539396,-122.294144,1,,0,
341188,341188,"W Hillsdale Blvd & Edison St-Bay 6",,  37.535440,-122.299480,1,,0,
341190,341190,"W Hillsdale Blvd & Hacienda St",,  37.533781,-122.304168,1,,0,
341191,341191,"W Hillsdale Blvd & Hacienda St",,  37.533786,-122.304802,1,,0,
341193,341193,"E Hillsdale Blvd & S Norfolk St",,  37.546218,-122.285273,1,,0,
341194,341194,"E Hillsdale Blvd & S Norfolk St",,  37.546291,-122.284592,1,,0,
341195,341195,"E Hillsdale Blvd & Pike Ln",,  37.540881,-122.291497,1,,0,
341196,341196,"E Hillsdale Blvd & Saratoga Dr",,  37.541200,-122.291485,1,,0,
341205,341205,"La Selva St & Los Prados St",,  37.544480,-122.283735,1,,0,
341206,341206,"La Selva St & Casa De Campo",,  37.543373,-122.284883,1,,0,
341213,341213,"Mariners Island Blvd & Armada Way",,  37.561365,-122.287596,1,,0,
341214,341214,"Mariners Island Blvd & Armada Way",,  37.561466,-122.287841,1,,0,
341218,341218,"Mariners Island Blvd & Fathom Dr",,  37.567114,-122.284625,1,,0,
341224,341224,"Mariners Island Blvd & Trader Ln",,  37.563708,-122.285009,1,,0,
341232,341232,"S Norfolk St & Cottage Grove Ave",,  37.568567,-122.306237,1,,0,
341233,341233,"S Norfolk St & Cottage Grove Ave",,  37.568055,-122.305901,1,,0,
341234,341234,"S Norfolk St & Dale Ave",,  37.566961,-122.304487,1,,0,
341236,341236,"S Norfolk St & Fashion Island Blvd",,  37.553320,-122.290693,1,,0,
341237,341237,"S Norfolk St & Fashion Island Blvd",,  37.553544,-122.291232,1,,0,
341238,341238,"S Norfolk St & Marina Ct",,  37.549175,-122.287935,1,,0,
341241,341241,"S Norfolk St & E Hillsdale Blvd",,  37.546868,-122.285480,1,,0,
341242,341242,"S Norfolk St & Kehoe Ave",,  37.564188,-122.302131,1,,0,
341243,341243,"S Norfolk St & Lodi Ave",,  37.561714,-122.299476,1,,0,
341244,341244,"S Norfolk St & Marina Ct",,  37.549439,-122.287982,1,,0,
341246,341246,"S Norfolk St & Dale Ave",,  37.566764,-122.304513,1,,0,
341249,341249,"S Norfolk St & Shoreview Ave",,  37.571499,-122.309712,1,,0,
341250,341250,"S Norfolk St & Shoreview Ave",,  37.571990,-122.309963,1,,0,
341251,341251,"S Norfolk St & Stanford Ave",,  37.557886,-122.295931,1,,0,
341252,341252,"S Norfolk St & Stanford Ave",,  37.558055,-122.295882,1,,0,
341253,341253,"S Norfolk St & Susan Ct",,  37.555307,-122.293038,1,,0,
341254,341254,"S Norfolk St & Susan Ct",,  37.555687,-122.293488,1,,0,
341267,341267,"Parrott Dr & Alameda de las Pulgas",,  37.554053,-122.334482,1,,0,
341270,341270,"Parrott Dr & Franklin St",,  37.558512,-122.329766,1,,0,
341271,341271,"Parrott Dr & Harvard Rd",,  37.556436,-122.330969,1,,0,
341272,341272,"Parrott Dr & Harvard Rd",,  37.556570,-122.331050,1,,0,
341290,341290,"S San Mateo Dr & 2nd Ave",,  37.565853,-122.325617,1,,0,
341292,341292,"S San Mateo Dr & E 4th Ave",,  37.563717,-122.323690,1,,0,
341304,341304,"S Norfolk St & E Hillsdale Blvd",,  37.545367,-122.284425,1,,0,
341416,341416,"S Delaware St & Birch Ave",,  37.560158,-122.312555,1,,0,
341422,341422,"Alameda de las Pulgas & Woodland Dr",,  37.552544,-122.330610,1,,0,
341515,341515,"Polhemus Rd & De Anza Blvd",,  37.519747,-122.337362,1,,0,
341537,341537,"S Norfolk St & Lodi Ave",,  37.561871,-122.299413,1,,0,
341538,341538,"S Norfolk St & Kehoe Ave",,  37.564273,-122.302019,1,,0,
341543,341543,"W Hillsdale Blvd & Edison St-Bay 8",,  37.535159,-122.299807,1,,0,
341544,341544,"W Hillsdale Blvd & Edison St-Bay 7",,  37.535250,-122.299696,1,,0,
341548,341548,"E 4th Ave & S Grant St",,  37.568311,-122.316288,1,,0,
341555,341555,"N Delaware St & Monte Diablo Ave",,  37.572397,-122.325743,1,,0,
341603,341603,"Bridgepointe Cir & Bridgepointe Pkwy",,  37.563150,-122.281637,1,,0,
341604,341604,"Bridgepointe Cir & Trader Ln",,  37.562713,-122.285126,1,,0,
341605,341605,"Bridgepointe Cir & Armada Way",,  37.561096,-122.285511,1,,0,
341607,341607,"Bridgepointe Pkwy & Chess Dr",,  37.561443,-122.282524,1,,0,
341608,341608,"S Delaware St & Charles Ln",,  37.555565,-122.307294,1,,0,
341611,341611,"Peninsula Ave & Anita Rd",,  37.577771,-122.338195,1,,0,
341612,341612,"N Delaware St & E Poplar Ave",,  37.575307,-122.329118,1,,0,
341613,341613,"S Delaware St & 10th Ave",,  37.562085,-122.314588,1,,0,
341614,341614,"Peninsula Ave & N Claremont St",,  37.579689,-122.335339,1,,0,
341615,341615,"S Delaware St & Charles Ln",,  37.554993,-122.306942,1,,0,
341617,341617,"Alameda de las Pulgas & MacArthur Ave",,  37.549488,-122.325650,1,,0,
341618,341618,"28th Ave & Alameda de las Pulgas",,  37.538115,-122.311424,1,,0,
341619,341619,"28th Ave & Hacienda St",,  37.539525,-122.308055,1,,0,
341620,341620,"256 37th Ave-San Mateo Medical Center",,  37.531773,-122.300997,1,,0,
341621,341621,"225 37th Ave-San Mateo Medical Center",,  37.531804,-122.300636,1,,0,
341622,341622,"Alameda de las Pulgas & Barneson Ave",,  37.548965,-122.324768,1,,0,
341624,341624,"28th Ave & Juniper St",,  37.539021,-122.309448,1,,0,
341625,341625,"S Delaware St & Pacific Blvd",,  37.549450,-122.305021,1,,0,
341627,341627,"27th Ave & S El Camino Real",,  37.542463,-122.304127,1,,0,
341628,341628,"28th Ave & S El Camino Real",,  37.541505,-122.303019,1,,0,
341629,341629,"N Delaware St & Monte Diablo Ave",,  37.572377,-122.325915,1,,0,
341633,341633,"640 N Delaware St",,  37.577720,-122.331543,1,,0,
341635,341635,"Saratoga Dr & Yates Way",,  37.545148,-122.294022,1,,0,
341636,341636,"Saratoga Dr & Park Pl",,  37.544834,-122.293121,1,,0,
341640,341640,"Alameda de las Pulgas & W 20th Ave",,  37.545807,-122.321025,1,,0,
341650,341650,"Hillsdale Blvd & Edison St-Hillsdale Shopping Ctr",,  37.535455,-122.299860,1,,0,
341655,341655,"W 5th Ave & El Camino Real",,  37.561125,-122.325117,1,,0,
341657,341657,"El Camino Real & W 4th Ave",,  37.562531,-122.325301,1,,0,
341658,341658,"2nd Ave & S San Mateo Dr",,  37.565791,-122.325380,1,,0,
341926,341926,"Polhemus Rd & Tower Rd",,  37.515829,-122.334172,1,,0,
342002,342002,"Alameda de las Pulgas & Alden St",,  37.515522,-122.295747,1,,0,
342003,342003,"Alameda de las Pulgas & Alden St",,  37.515790,-122.295961,1,,0,
342004,342004,"Alameda de las Pulgas & Belmont Library",,  37.508815,-122.292531,1,,0,
342005,342005,"Alameda de las Pulgas & El Verano Way",,  37.508350,-122.290930,1,,0,
342006,342006,"Alameda de las Pulgas & Cipriani Blvd",,  37.522265,-122.300678,1,,0,
342007,342007,"Alameda de las Pulgas & Cipriani Blvd",,  37.522327,-122.300646,1,,0,
342009,342009,"Alameda de las Pulgas & El Verano Way",,  37.508019,-122.290308,1,,0,
342010,342010,"Alameda de las Pulgas & Mezes Ave",,  37.519908,-122.297398,1,,0,
342011,342011,"Alameda de las Pulgas & Mezes Ave",,  37.520255,-122.297646,1,,0,
342012,342012,"Alameda de las Pulgas & Ralston Ave",,  37.511612,-122.294002,1,,0,
342013,342013,"Alameda de las Pulgas & Ralston Ave",,  37.512545,-122.294511,1,,0,
342019,342019,"Carlmont Dr & Merry Moppet Ln",,  37.510613,-122.297269,1,,0,
342036,342036,"Continentals Way & Cipriani Blvd",,  37.511640,-122.304224,1,,0,
342037,342037,"Continentals Way & Lyall Way",,  37.510742,-122.302926,1,,0,
342044,342044,"El Camino Real & 5th Ave-Belmont",,  37.514119,-122.268390,1,,0,
342045,342045,"El Camino Real & 5th Ave-Belmont",,  37.514102,-122.268734,1,,0,
342047,342047,"El Camino Real & Davey Glen Rd",,  37.526595,-122.283194,1,,0,
342048,342048,"El Camino Real & Davey Glen Rd",,  37.526387,-122.283505,1,,0,
342049,342049,"El Camino Real & Harbor Blvd",,  37.517734,-122.272489,1,,0,
342050,342050,"El Camino Real & Harbor Blvd",,  37.516879,-122.271954,1,,0,
342052,342052,"El Camino Real & Ralston Ave",,  37.519951,-122.275617,1,,0,
342053,342053,"El Camino Real & Ralston Ave",,  37.521213,-122.276657,1,,0,
342054,342054,"El Camino Real & Ruth Ave",,  37.529010,-122.286794,1,,0,
342070,342070,"Lake Rd & Carlmont Dr",,  37.509571,-122.299486,1,,0,
342087,342087,"Ralston Ave & Alameda de las Pulgas",,  37.512073,-122.294818,1,,0,
342089,342089,"Ralston Ave & Belmont Canyon Rd",,  37.511983,-122.316294,1,,0,
342090,342090,"Ralston Ave & Belmont Canyon Rd",,  37.511989,-122.315053,1,,0,
342091,342091,"Ralston Ave & Chula Vista Dr",,  37.515726,-122.283276,1,,0,
342093,342093,"Ralston Ave & Cipriani Blvd",,  37.512538,-122.304549,1,,0,
342095,342095,"Ralston Ave & Davis Dr",,  37.512422,-122.308843,1,,0,
342096,342096,"Ralston Ave & Davis Dr",,  37.512737,-122.309604,1,,0,
342097,342097,"Ralston Ave & El Camino Real",,  37.519945,-122.276629,1,,0,
342098,342098,"Ralston Ave & El Camino Real",,  37.519599,-122.276736,1,,0,
342100,342100,"Ralston Ave & Hallmark Dr",,  37.511386,-122.318698,1,,0,
342101,342101,"Ralston Ave & Hallmark Dr",,  37.511429,-122.319486,1,,0,
342107,342107,"Ralston Ave & Hiller St",,  37.523211,-122.273314,1,,0,
342113,342113,"Ralston Ave & South Rd",,  37.518311,-122.277864,1,,0,
342114,342114,"Ralston Ave & Twin Pines Park",,  37.518080,-122.277737,1,,0,
342600,342600,"Ralston Ave & Old County Rd",,  37.521260,-122.274757,1,,0,
342601,342601,"Ralston Ave & Hiller St",,  37.523155,-122.273022,1,,0,
342900,342900,"Ralston Ave & Christian Dr",,  37.511567,-122.326357,1,,0,
342901,342901,"Ralston Ave & Christian Dr",,  37.511874,-122.326869,1,,0,
343005,343005,"Alameda de las Pulgas & Eaton Ave",,  37.483737,-122.256880,1,,0,
343006,343006,"Alameda de las Pulgas & Eaton Ave",,  37.483992,-122.256939,1,,0,
343007,343007,"Alameda de las Pulgas & Hill Way",,  37.487101,-122.260916,1,,0,
343011,343011,"Alameda de las Pulgas & Oakview Dr",,  37.488083,-122.261864,1,,0,
343014,343014,"Alameda de las Pulgas & Saint Francis Way",,  37.485319,-122.258565,1,,0,
343022,343022,"Brittan Ave & Cordilleras Ave",,  37.494686,-122.260753,1,,0,
343052,343052,"Edmonds Rd & Crestview Dr",,  37.475616,-122.280350,1,,0,
343053,343053,"El Camino Real & Arroyo Ave-San Carlos",,  37.503576,-122.255629,1,,0,
343054,343054,"El Camino Real & Arroyo Ave-San Carlos",,  37.503023,-122.255394,1,,0,
343055,343055,"El Camino Real & Belmont Ave",,  37.497643,-122.248745,1,,0,
343056,343056,"El Camino Real & Belmont Ave",,  37.497331,-122.248791,1,,0,
343058,343058,"El Camino Real & Brittan Ave",,  37.500383,-122.252290,1,,0,
343059,343059,"El Camino Real & Eaton Ave",,  37.493618,-122.244464,1,,0,
343061,343061,"El Camino Real & Hull Dr",,  37.511270,-122.265865,1,,0,
343062,343062,"El Camino Real & Oak St",,  37.510966,-122.264789,1,,0,
343063,343063,"El Camino Real & San Carlos Ave",,  37.506892,-122.260022,1,,0,
343064,343064,"El Camino Real & San Carlos Ave",,  37.506554,-122.259186,1,,0,
343065,343065,"El Camino Real & Saint Francis Way",,  37.495016,-122.245736,1,,0,
343096,343096,"Cedar St & San Carlos Ave",,  37.503548,-122.264740,1,,0,
343097,343097,"San Carlos Ave & Beverly St",,  37.502683,-122.279126,1,,0,
343098,343098,"San Carlos Ave & Cedar St",,  37.503658,-122.265170,1,,0,
343099,343099,"San Carlos Ave & Cedar St",,  37.503811,-122.264646,1,,0,
343100,343100,"San Carlos Ave & Charlton St",,  37.502515,-122.278577,1,,0,
343101,343101,"San Carlos Ave & Club Dr",,  37.506824,-122.285578,1,,0,
343102,343102,"San Carlos Ave & Dartmouth Ave",,  37.507128,-122.285183,1,,0,
343104,343104,"San Carlos Ave & Devonshire Blvd",,  37.502077,-122.275826,1,,0,
343105,343105,"San Carlos Ave & Elm St",,  37.505189,-122.262827,1,,0,
343106,343106,"San Carlos Ave & Kenton Ave",,  37.506329,-122.281756,1,,0,
343107,343107,"San Carlos Ave & Kenton Ave",,  37.506277,-122.281577,1,,0,
343108,343108,"San Carlos Ave & Laurel St",,  37.506482,-122.261493,1,,0,
343110,343110,"San Carlos Ave & Phelps Rd",,  37.502374,-122.272645,1,,0,
343111,343111,"San Carlos Ave & Phelps Rd",,  37.502301,-122.272079,1,,0,
343114,343114,"San Carlos Ave & Sycamore St",,  37.502851,-122.266144,1,,0,
343115,343115,"San Carlos Ave & Sycamore St",,  37.502301,-122.266450,1,,0,
343117,343117,"San Carlos Ave & Wellington Dr",,  37.502254,-122.276488,1,,0,
343404,343404,"Alameda de las Pulgas & Brittan Ave",,  37.490770,-122.265196,1,,0,
343408,343408,"Cedar St & Arroyo Ave",,  37.497937,-122.260305,1,,0,
343600,343600,"Brittan Ave & Brook St",,  37.492129,-122.263991,1,,0,
343601,343601,"Brittan Ave & Cedar St",,  37.496287,-122.258594,1,,0,
343604,343604,"Brittan Ave & Cordilleras Ave",,  37.494567,-122.260717,1,,0,
343605,343605,"Cedar St & Brittan Ave",,  37.496523,-122.258455,1,,0,
343607,343607,"San Carlos Caltrain Station",,  37.506411,-122.258953,1,,0,
343608,343608,"El Camino Real & Brittan Ave",,  37.501096,-122.252656,1,,0,
344005,344005,"Alameda de las Pulgas & Fernside St",,  37.450746,-122.234295,1,,0,
344006,344006,"Alameda de las Pulgas & Maddux Dr",,  37.458701,-122.240703,1,,0,
344013,344013,"Alameda de las Pulgas & Woodside Dr",,  37.454057,-122.237778,1,,0,
344016,344016,"Alameda de las Pulgas & Massachusetts Ave",,  37.454019,-122.237482,1,,0,
344017,344017,"Alameda de las Pulgas & McGarvey Ave",,  37.464231,-122.245904,1,,0,
344018,344018,"Woodside Road & San Carlos Ave",,  37.457583,-122.227190,1,,0,
344020,344020,"Alameda de las Pulgas & Roosevelt Ave",,  37.461929,-122.243579,1,,0,
344023,344023,"Alameda de las Pulgas & Vera Ave",,  37.466600,-122.245620,1,,0,
344024,344024,"Alameda de las Pulgas & Whipple Ave",,  37.481164,-122.253589,1,,0,
344025,344025,"Alameda de las Pulgas & Whipple Ave",,  37.481242,-122.253436,1,,0,
344026,344026,"Alameda de las Pulgas & Woodside Rd",,  37.449588,-122.232563,1,,0,
344028,344028,"Bay Rd & 10th Ave",,  37.479851,-122.194192,1,,0,
344029,344029,"Alameda de las Pulgas & Roosevelt Ave",,  37.461746,-122.243565,1,,0,
344030,344030,"Bay Rd & 5th Ave",,  37.481379,-122.198193,1,,0,
344032,344032,"Bay Rd & 8th Ave",,  37.480497,-122.195857,1,,0,
344033,344033,"Alameda de las Pulgas & Mcgarvey Ave",,  37.464193,-122.246081,1,,0,
344034,344034,"Alameda de las Pulgas & Carson St",,  37.459128,-122.240986,1,,0,
344035,344035,"Bay Rd & Haven Ave",,  37.479053,-122.192072,1,,0,
344036,344036,"Marsh Road & 1000 Marsh",,  37.479447,-122.184994,1,,0,
344041,344041,"Alameda de las Pulgas & Vera Ave",,  37.466620,-122.245821,1,,0,
344057,344057,"Edmonds Rd & Cordilleras Ctr",,  37.473508,-122.285684,1,,0,
344069,344069,"El Camino Real & Brewster Ave",,  37.486650,-122.235590,1,,0,
344070,344070,"El Camino Real & Brewster Ave",,  37.487500,-122.236210,1,,0,
344074,344074,"El Camino Real & Charter St",,  37.474119,-122.218368,1,,0,
344075,344075,"El Camino Real & Center St-Redwood City",,  37.473286,-122.217661,1,,0,
344079,344079,"El Camino Real & Whipple Ave",,  37.491104,-122.241001,1,,0,
344080,344080,"El Camino Real & Whipple Ave",,  37.491469,-122.241082,1,,0,
344082,344082,"El Camino Real & Hopkins Ave",,  37.488568,-122.237968,1,,0,
344083,344083,"El Camino Real & Hopkins Ave",,  37.489373,-122.238344,1,,0,
344084,344084,"El Camino Real & Jefferson Ave",,  37.482364,-122.230220,1,,0,
344085,344085,"El Camino Real & Jefferson Ave",,  37.483516,-122.231384,1,,0,
344086,344086,"El Camino Real & Lincoln Ave",,  37.479518,-122.226286,1,,0,
344087,344087,"El Camino Real & Main St",,  37.477299,-122.222767,1,,0,
344090,344090,"El Camino Real & Oak Ave",,  37.477775,-122.223870,1,,0,
344091,344091,"El Camino Real & Oakwood Dr",,  37.470676,-122.214044,1,,0,
344094,344094,"El Camino Real & Cedar St",,  37.479312,-122.225569,1,,0,
344095,344095,"El Camino Real & Winklebleck St",,  37.485375,-122.233802,1,,0,
344102,344102,"3550 Farm Hill Blvd",,  37.463390,-122.249955,1,,0,
344103,344103,"3550 Farm Hill Blvd",,  37.463772,-122.249787,1,,0,
344104,344104,"Farm Hill Blvd & Cambridge Rd",,  37.454742,-122.253158,1,,0,
344105,344105,"Farm Hill Blvd & Eden Bower Ln",,  37.451534,-122.259889,1,,0,
344106,344106,"Farm Hill Blvd & Eden Bower Ln",,  37.451154,-122.260351,1,,0,
344107,344107,"Farm Hill Blvd & Emerald Hill Rd",,  37.455121,-122.252791,1,,0,
344108,344108,"Farm Hill Blvd & Glennan Dr",,  37.457846,-122.248451,1,,0,
344109,344109,"Farm Hill Blvd & Glennan Dr",,  37.457899,-122.248639,1,,0,
344110,344110,"Farm Hill Blvd & Jefferson Ave",,  37.465042,-122.249489,1,,0,
344111,344111,"Farm Hill Blvd & Jefferson Ave",,  37.465014,-122.249277,1,,0,
344112,344112,"Farm Hill Blvd & Lonesome Pine Rd",,  37.453345,-122.256357,1,,0,
344113,344113,"Farm Hill Blvd & Lonesome Pine Rd",,  37.453377,-122.257174,1,,0,
344114,344114,"Farm Hill Blvd & Mcgarvey Ave",,  37.461133,-122.249917,1,,0,
344115,344115,"Farm Hill Blvd & Mcgarvey Ave",,  37.460938,-122.250040,1,,0,
344118,344118,"Florence St & 17th Ave",,  37.478600,-122.187397,1,,0,
344149,344149,"Jefferson Ave & Alameda de las Pulgas",,  37.469626,-122.247322,1,,0,
344150,344150,"Jefferson Ave & Altamont Way",,  37.467859,-122.249891,1,,0,
344153,344153,"Jefferson Ave & Devon Way",,  37.467842,-122.249619,1,,0,
344160,344160,"Blomquist St & Maple St",,  37.493629,-122.219157,1,,0,
344191,344191,"Middlefield Rd & 2nd Ave",,  37.473768,-122.206804,1,,0,
344192,344192,"Middlefield Rd & 2nd Ave",,  37.473512,-122.206837,1,,0,
344193,344193,"Middlefield Rd & 5th Ave",,  37.472352,-122.204673,1,,0,
344194,344194,"Middlefield Rd & 8th Ave",,  37.470541,-122.201887,1,,0,
344195,344195,"Middlefield Rd & Cassia St",,  37.483420,-122.224626,1,,0,
344196,344196,"Middlefield Rd & Elm St",,  37.483431,-122.224164,1,,0,
344197,344197,"Middlefield Rd & Charter St",,  37.479712,-122.216372,1,,0,
344198,344198,"Middlefield Rd & Chestnut St",,  37.481964,-122.221326,1,,0,
344199,344199,"Middlefield Rd & Chestnut St",,  37.482368,-122.221777,1,,0,
344200,344200,"Middlefield Rd & Douglas Ave",,  37.477785,-122.212906,1,,0,
344201,344201,"Middlefield Rd & Douglas Ave",,  37.477560,-122.212893,1,,0,
344203,344203,"Middlefield Rd & Dumbarton Ave",,  37.475140,-122.208902,1,,0,
344204,344204,"Middlefield Rd & Dumbarton Ave",,  37.474952,-122.208998,1,,0,
344205,344205,"Middlefield Rd & 7th Ave",,  37.470835,-122.202784,1,,0,
344206,344206,"Middlefield Rd & 5th Ave",,  37.471895,-122.204383,1,,0,
344207,344207,"Middlefield Rd & Flynn Ave",,  37.478892,-122.214543,1,,0,
344208,344208,"Middlefield Rd & Laurel St",,  37.480771,-122.218144,1,,0,
344211,344211,"3500 Middlefield Rd-St Anthonys Church",,  37.470148,-122.200564,1,,0,
344418,344418,"Jefferson Ave & Marshall St",,  37.487965,-122.228184,1,,0,
344419,344419,"Veterans Blvd & Walnut St",,  37.489388,-122.222963,1,,0,
344420,344420,"Veterans Blvd & Hansen Way",,  37.488992,-122.219712,1,,0,
344434,344434,"Broadway & Woodside Rd",,  37.487022,-122.215908,1,,0,
344439,344439,"Veterans Blvd & Maple St",,  37.489684,-122.222849,1,,0,
344441,344441,"Marshall St & Main St",,  37.487732,-122.226798,1,,0,
344443,344443,"Woodside Rd & Nimitz Ave",,  37.459753,-122.225969,1,,0,
344444,344444,"Woodside Rd & Atherwood Ave",,  37.460987,-122.225372,1,,0,
344445,344445,"Woodside Rd & Kentfield Ave",,  37.462427,-122.224988,1,,0,
344446,344446,"Woodside Rd & Union Ave",,  37.465197,-122.224364,1,,0,
344447,344447,"Woodside Rd & Orchard Ave",,  37.466696,-122.224012,1,,0,
344448,344448,"Woodside Rd & Bonita Ave",,  37.468032,-122.223701,1,,0,
344449,344449,"Woodside Rd & Central Ave",,  37.469513,-122.223361,1,,0,
344450,344450,"Woodside Rd & Hess Rd",,  37.471314,-122.223210,1,,0,
344451,344451,"Woodside Rd & Hudson St",,  37.469138,-122.223729,1,,0,
344452,344452,"Woodside Rd & Gordon St",,  37.467024,-122.224216,1,,0,
344453,344453,"Woodside Rd & Union Ave",,  37.465208,-122.224627,1,,0,
344454,344454,"Woodside Rd & Kentfield Ave",,  37.461413,-122.225483,1,,0,
344455,344455,"Woodside Rd & Volota Rd",,  37.459339,-122.226500,1,,0,
344470,344470,"Whipple Ave & Nevada St",,  37.481686,-122.250702,1,,0,
344472,344472,"Whipple Ave & Iris St",,  37.484552,-122.247086,1,,0,
344473,344473,"Whipple Ave & Fulton St",,  37.486616,-122.244405,1,,0,
344474,344474,"Whipple Ave & Duane St",,  37.487849,-122.242881,1,,0,
344475,344475,"Whipple Ave & El Camino Real",,  37.489753,-122.240521,1,,0,
344485,344485,"Broadway / Charter",,  37.486707,-122.212774,1,,0,
344491,344491,"Edgewood Rd & Scenic Dr",,  37.479709,-122.259364,1,,0,
344492,344492,"Edgewood Rd & Scenic Dr",,  37.479591,-122.259679,1,,0,
344494,344494,"Whipple Ave & Oakdale St",,  37.487733,-122.243238,1,,0,
344495,344495,"Whipple Ave & Copley Ave",,  37.483666,-122.248425,1,,0,
344498,344498,"1725 E Bayshore Rd",,  37.490490,-122.211217,1,,0,
344499,344499,"1933 E Bayshore Rd",,  37.487721,-122.204924,1,,0,
344500,344500,"2053 E Bayshore Rd.",,  37.487249,-122.201142,1,,0,
344501,344501,"3401 E Bayshore Rd.",,  37.486091,-122.191673,1,,0,
344502,344502,"Haven Ave & E Bayshore Rd",,  37.486027,-122.189807,1,,0,
344503,344503,"3555 Haven Ave",,  37.486475,-122.187663,1,,0,
344504,344504,"3639 Haven Ave",,  37.485579,-122.183517,1,,0,
344505,344505,"3719 Haven Ave.",,  37.486471,-122.181398,1,,0,
344513,344513,"3015 E Bayshore Rd.",,  37.486726,-122.196805,1,,0,
344606,344606,"Bay Rd & Warrington Ave",,  37.483370,-122.204405,1,,0,
344607,344607,"Bay Rd & 2nd Ave",,  37.482484,-122.201144,1,,0,
344624,344624,"Woodside Rd & Hess Rd",,  37.471374,-122.222936,1,,0,
344631,344631,"Redwood City Caltrain-Lane A",,  37.486045,-122.232237,1,,0,
344633,344633,"Redwood City Caltrain-Lane A",,  37.485902,-122.232045,1,,0,
344636,344636,"Redwood City Caltrain-Lane B",,  37.485820,-122.232068,1,,0,
344637,344637,"Redwood City Caltrain-Lane C",,  37.485737,-122.232138,1,,0,
344643,344643,"Woodside Rd & Alameda de las Pulgas",,  37.449335,-122.231123,1,,0,
344645,344645,"Woodside Rd & Massachusetts Ave",,  37.456823,-122.227903,1,,0,
344646,344646,"Woodside Rd & Santa Clara Ave",,  37.453803,-122.228968,1,,0,
344654,344654,"Jefferson Ave & Alameda de las Pulgas",,  37.469697,-122.247682,1,,0,
344655,344655,"Broadway & Douglas Ave",,  37.485910,-122.207475,1,,0,
344900,344900,"El Camino Real & Dumbarton Ave",,  37.470402,-122.213201,1,,0,
344901,344901,"El Camino Real & Northumberland Ave",,  37.472764,-122.216475,1,,0,
345012,345012,"El Camino Real & Almendral Ave",,  37.464371,-122.204405,1,,0,
345013,345013,"El Camino Real & Almendral Ave",,  37.464047,-122.204330,1,,0,
345016,345016,"El Camino Real & Isabella Ave",,  37.459917,-122.196005,1,,0,
345017,345017,"1000 El Camino Real-Menlo College",,  37.457543,-122.191284,1,,0,
345022,345022,"El Camino Real & Watkins Ave",,  37.459854,-122.195358,1,,0,
345023,345023,"El Camino Real & Winchester Dr",,  37.461066,-122.198343,1,,0,
345025,345025,"Middlefield Rd & Oak Grove",,  37.462354,-122.179297,1,,0,
345026,345026,"Middlefield Rd & Fair Oaks Ln",,  37.469724,-122.195184,1,,0,
345027,345027,"Middlefield Rd & James Ave",,  37.467012,-122.188523,1,,0,
345028,345028,"Middlefield Rd & Lane Pl",,  37.466460,-122.187764,1,,0,
345030,345030,"Middlefield Rd & San Benito Ave",,  37.469892,-122.196093,1,,0,
345400,345400,"El Camino Real & 5th Ave",,  37.466759,-122.208728,1,,0,
345600,345600,"Middlefield Rd & Oak Grove Ave",,  37.461597,-122.178108,1,,0,
345900,345900,"El Camino Real & Amherst-5th Ave",,  37.466406,-122.207690,1,,0,
346002,346002,"Alameda de las Pulgas & Avy Ave",,  37.431556,-122.201330,1,,0,
346008,346008,"Alameda de las Pulgas & Sharon Rd",,  37.430464,-122.199264,1,,0,
346012,346012,"Avy Ave & Altschul Ave",,  37.429811,-122.203106,1,,0,
346013,346013,"Avy Ave & Cloud Ave",,  37.433140,-122.200300,1,,0,
346014,346014,"Avy Ave & Lucky Ave",,  37.432535,-122.200961,1,,0,
346015,346015,"Avy Ave & Monte Rosa Dr",,  37.427952,-122.205312,1,,0,
346016,346016,"Avy Ave & Santa Cruz Ave",,  37.434680,-122.198572,1,,0,
346017,346017,"Avy Ave & Sherman Ave",,  37.434100,-122.199231,1,,0,
346040,346040,"El Camino Real & Cambridge Ave",,  37.448402,-122.173795,1,,0,
346041,346041,"El Camino Real & Cambridge Ave",,  37.448103,-122.173831,1,,0,
346042,346042,"El Camino Real & Encinal Ave",,  37.457614,-122.190904,1,,0,
346044,346044,"El Camino Real & Live Oak Ave",,  37.452022,-122.180179,1,,0,
346045,346045,"El Camino Real & Middle Ave",,  37.450628,-122.177694,1,,0,
346046,346046,"El Camino Real & Middle Ave",,  37.451127,-122.177994,1,,0,
346047,346047,"El Camino Real & Oak Grove Ave-Menlo Park Caltrain",,  37.454045,-122.184196,1,,0,
346048,346048,"El Camino Real & Oak Grove Ave-Menlo Park Caltrain",,  37.454607,-122.184780,1,,0,
346049,346049,"El Camino Real & Ravenswood Ave",,  37.453309,-122.182107,1,,0,
346051,346051,"El Camino Real & Valparaiso Ave",,  37.455640,-122.187378,1,,0,
346073,346073,"Market Pl & Del Norte Ave",,  37.477308,-122.167435,1,,0,
346074,346074,"Market Pl & Del Norte Ave",,  37.477165,-122.167392,1,,0,
346075,346075,"Market Pl & Alpine Ave",,  37.476456,-122.166179,1,,0,
346076,346076,"Market Pl & Hamilton Ave",,  37.476466,-122.165970,1,,0,
346087,346087,"Merrill St & Santa Cruz Ave",,  37.454178,-122.182020,1,,0,
346103,346103,"Middlefield Rd & Survey Ln",,  37.457682,-122.169972,1,,0,
346104,346104,"Middlefield Rd & Survey Ln",,  37.457472,-122.170048,1,,0,
346106,346106,"Middlefield Rd & Linfield Dr",,  37.456065,-122.167182,1,,0,
346109,346109,"Middlefield Rd & Santa Margarita Ave",,  37.455190,-122.165031,1,,0,
346110,346110,"Middlefield Rd & Santa Margarita Ave",,  37.455351,-122.165814,1,,0,
346112,346112,"Newbridge St & Windermere Ave",,  37.474357,-122.159173,1,,0,
346113,346113,"Newbridge St & Almanor Ave",,  37.474991,-122.161962,1,,0,
346114,346114,"Newbridge St & Carlton Ave",,  37.473207,-122.155847,1,,0,
346115,346115,"Newbridge St & Hollyburne Ave",,  37.473980,-122.158208,1,,0,
346116,346116,"Newbridge St & Pierce Rd",,  37.474915,-122.164606,1,,0,
346117,346117,"Newbridge St & Windermere Ave",,  37.474456,-122.159697,1,,0,
346119,346119,"Oakgrove Ave & Laurel St",,  37.456978,-122.182200,1,,0,
346124,346124,"Onetta Harris Community Ctr",,  37.478292,-122.167266,1,,0,
346129,346129,"Ravenswood Ave & Noel Dr",,  37.454442,-122.180075,1,,0,
346130,346130,"Ravenswood Ave & Laurel St",,  37.456478,-122.178298,1,,0,
346131,346131,"Ravenswood Ave & Pine St",,  37.456164,-122.178724,1,,0,
346140,346140,"Santa Cruz Ave & Elder Ave",,  37.438232,-122.195771,1,,0,
346147,346147,"Santa Cruz Ave & Arbor Rd",,  37.446924,-122.188532,1,,0,
346148,346148,"Santa Cruz Ave & Chestnut St",,  37.451582,-122.184480,1,,0,
346150,346150,"Santa Cruz Ave & Crane St",,  37.450949,-122.185196,1,,0,
346151,346151,"Santa Cruz Ave & Curtis St",,  37.452473,-122.183926,1,,0,
346152,346152,"Santa Cruz Ave & Doyle St",,  37.453008,-122.183297,1,,0,
346153,346153,"Santa Cruz Ave & Evelyn St",,  37.450251,-122.185586,1,,0,
346154,346154,"Santa Cruz Ave & Fremont St",,  37.447506,-122.187831,1,,0,
346155,346155,"Santa Cruz Ave & Hermosa Way",,  37.443161,-122.191684,1,,0,
346156,346156,"Santa Cruz Ave & Lemon St",,  37.437056,-122.196562,1,,0,
346157,346157,"Santa Cruz Ave & Merrill St-Menlo Park Caltrain",,  37.454213,-122.182402,1,,0,
346158,346158,"Santa Cruz Ave & North Lemon Ave",,  37.435715,-122.197876,1,,0,
346159,346159,"Santa Cruz Ave & Olive St",,  37.440631,-122.193559,1,,0,
346160,346160,"Santa Cruz Ave & San Mateo Dr",,  37.445154,-122.189781,1,,0,
346161,346161,"Santa Cruz Ave & San Mateo Dr",,  37.444995,-122.190142,1,,0,
346162,346162,"Santa Cruz Ave & Johnson St",,  37.448712,-122.187068,1,,0,
346170,346170,"Sharon Rd & Altschul Ave",,  37.428490,-122.200717,1,,0,
346171,346171,"Sharon Rd & East Ridge Ave",,  37.426368,-122.198257,1,,0,
346173,346173,"Sharon Park Dr & Sharon Rd",,  37.424503,-122.197381,1,,0,
346179,346179,"Willow Rd & Blackburn Ave",,  37.456210,-122.163035,1,,0,
346180,346180,"Willow Rd & Blackburn Ave",,  37.455819,-122.163446,1,,0,
346181,346181,"Willow Rd & Chester St",,  37.466091,-122.156660,1,,0,
346182,346182,"Willow Rd & Coleman Ave",,  37.461169,-122.159998,1,,0,
346183,346183,"Willow Rd & Coleman Ave",,  37.461082,-122.160287,1,,0,
346185,346185,"Willow Rd & Gilbert Ave",,  37.459956,-122.161100,1,,0,
346186,346186,"Willow Rd & Nash Ave",,  37.458662,-122.162002,1,,0,
346187,346187,"Willow Rd & O'Keefe St",,  37.463260,-122.158262,1,,0,
346188,346188,"VA Medical Ctr-Menlo Park",,  37.465153,-122.158507,1,,0,
346200,346200,"Middlefield Rd & Ringwood Ave",,  37.459201,-122.173021,1,,0,
346201,346201,"Santa Cruz Ave & Hobart St",,  37.441321,-122.193208,1,,0,
346600,346600,"Santa Cruz Ave & Hermosa Way",,  37.443249,-122.191382,1,,0,
346601,346601,"Santa Cruz Ave & Elder Ave",,  37.438768,-122.195341,1,,0,
346612,346612,"Newbridge St & Madera Ave",,  37.473531,-122.156557,1,,0,
346614,346614,"Newbridge St & Alamanor Ave",,  37.475068,-122.162072,1,,0,
346615,346615,"Newbridge St & Hollyburne Ave",,  37.474198,-122.158687,1,,0,
346616,346616,"Newbridge St & Market Pl",,  37.475002,-122.164770,1,,0,
346618,346618,"Monte Rosa Dr & Eastridge Ave",,  37.425550,-122.200750,1,,0,
346912,346912,"Sharon Rd & Sharon Park Dr",,  37.425215,-122.196990,1,,0,
347001,347001,"Alma St & Lytton Ave",,  37.444254,-122.165096,1,,0,
347016,347016,"El Camino Real & Quarry Rd-Stanford Shopping Ctr",,  37.444456,-122.168262,1,,0,
347017,347017,"El Camino Real & Quarry Rd-Stanford Shopping Ctr",,  37.444092,-122.168385,1,,0,
347026,347026,"High St & Lytton Ave",,  37.444699,-122.164473,1,,0,
347027,347027,"Lytton Ave & Cowper St",,  37.449244,-122.160230,1,,0,
347028,347028,"Lytton Ave & Florence St",,  37.447308,-122.162374,1,,0,
347029,347029,"Lytton Ave & Kipling St",,  37.448360,-122.161340,1,,0,
347030,347030,"Lytton Ave & Ramona St",,  37.446277,-122.163179,1,,0,
347031,347031,"Lytton Ave & Ramona St",,  37.446001,-122.163699,1,,0,
347032,347032,"Lytton Ave & Kipling St",,  37.448380,-122.161117,1,,0,
347059,347059,"University Ave & Chaucer St",,  37.455395,-122.152055,1,,0,
347060,347060,"University Ave & Chaucer St",,  37.455439,-122.152205,1,,0,
347062,347062,"University Ave & Lincoln Ave",,  37.455485,-122.146612,1,,0,
347063,347063,"University Ave & Lincoln Ave",,  37.455543,-122.147088,1,,0,
347064,347064,"University Ave & Middlefield Rd",,  37.450586,-122.156853,1,,0,
347065,347065,"University Ave & Middlefield Rd",,  37.450209,-122.157440,1,,0,
347066,347066,"University Ave & Seneca St",,  37.453301,-122.154168,1,,0,
347067,347067,"University Ave & Seneca St",,  37.453272,-122.154403,1,,0,
347068,347068,"University Ave & Crescent Dr",,  37.456048,-122.145091,1,,0,
347082,347082,"Palo Alto Transit Ctr-Bay 1",,  37.443779,-122.166092,1,,0,
347084,347084,"Palo Alto Transit Ctr-Bay 4",,  37.444114,-122.166631,1,,0,
347085,347085,"Palo Alto Transit Ctr-Bay 5",,  37.444220,-122.166808,1,,0,
347602,347602,"Sand Hill Rd & London Plane Way",,  37.445373,-122.172116,1,,0,
347603,347603,"Arboretum Rd & Quarry Rd",,  37.439809,-122.171854,1,,0,
347605,347605,"Quarry Rd & Palo Dr",,  37.442068,-122.169526,1,,0,
347609,347609,"Palo Alto Transit Ctr-Bay 9",,  37.443901,-122.166051,1,,0,
351001,351001,"3800 Bayshore Blvd-Andrys Trailer Park",,  37.679916,-122.394444,1,,0,
351002,351002,"3745 Bayshore Blvd-Andrys Trailer Park",,  37.680194,-122.394173,1,,0,
351005,351005,"Bayshore Blvd & Guadalupe Canyon Pkwy",,  37.691945,-122.404510,1,,0,
351006,351006,"Bayshore Blvd & Guadalupe Canyon Pkwy",,  37.693031,-122.404722,1,,0,
351007,351007,"Bayshore Blvd & Industrial Way",,  37.701097,-122.408678,1,,0,
351008,351008,"Bayshore Blvd & Industrial Way",,  37.701435,-122.408295,1,,0,
351009,351009,"Bayshore Blvd & Old County Rd",,  37.684810,-122.397639,1,,0,
351010,351010,"Bayshore Blvd & Old County Rd",,  37.685313,-122.397701,1,,0,
351011,351011,"Bayshore Blvd & Valley Dr",,  37.686831,-122.400197,1,,0,
351012,351012,"Bayshore Blvd & Valley Dr",,  37.687693,-122.400834,1,,0,
361013,361013,"Beach Park Blvd & Catamaran St",,  37.548194,-122.266362,1,,0,
361014,361014,"Beach Park Blvd & Cutter Ln",,  37.548590,-122.255695,1,,0,
361015,361015,"Beach Park Blvd & Edgewater Blvd",,  37.545995,-122.271452,1,,0,
361016,361016,"Beach Park Blvd & Egret St",,  37.570184,-122.257434,1,,0,
361017,361017,"Beach Park Blvd & Farragut Blvd",,  37.547120,-122.267787,1,,0,
361018,361018,"Beach Park Blvd & Farragut Blvd",,  37.546960,-122.267655,1,,0,
361019,361019,"Beach Park Blvd & Foster City Blvd",,  37.551678,-122.251300,1,,0,
361020,361020,"Beach Park Blvd & Gull Ave.",,  37.569429,-122.265001,1,,0,
361021,361021,"Beach Park Blvd & Cutter St",,  37.548434,-122.255919,1,,0,
361022,361022,"Beach Park Blvd & Halibut St",,  37.553904,-122.249207,1,,0,
361023,361023,"Foster City Blvd & Beach Park Blvd",,  37.551660,-122.251626,1,,0,
361024,361024,"Beach Park Blvd & Halsey Blvd",,  37.548538,-122.264277,1,,0,
361026,361026,"Beach Park Blvd & Marlin Ave",,  37.563543,-122.249841,1,,0,
361027,361027,"Beach Park Blvd & Sanderling St",,  37.568401,-122.254238,1,,0,
361029,361029,"Beach Park Blvd & Shell Blvd",,  37.548734,-122.263290,1,,0,
361030,361030,"Beach Park Blvd & Swordfish St",,  37.557609,-122.247902,1,,0,
361032,361032,"Beach Park Blvd & Tarpon St",,  37.560130,-122.247910,1,,0,
361060,361060,"Edgewater Blvd & Altair Ave",,  37.552903,-122.275776,1,,0,
361061,361061,"Edgewater Blvd & Beach Park Blvd",,  37.546183,-122.272427,1,,0,
361064,361064,"Edgewater Blvd & Dorado Ln",,  37.548313,-122.273929,1,,0,
361065,361065,"Edgewater Blvd & E Hillsdale Blvd",,  37.553882,-122.277146,1,,0,
361066,361066,"Edgewater Blvd & E Hillsdale Blvd",,  37.554919,-122.277735,1,,0,
361071,361071,"Edgewater Blvd & Regulus St",,  37.550637,-122.274356,1,,0,
361072,361072,"Edgewater Blvd & Regulus St",,  37.550381,-122.274630,1,,0,
361074,361074,"Foster City Blvd & Balclutha Dr",,  37.559836,-122.266107,1,,0,
361075,361075,"Foster City Blvd & Bounty Dr",,  37.557017,-122.261085,1,,0,
361076,361076,"Foster City Blvd & Marlin Ave",,  37.554172,-122.255883,1,,0,
361077,361077,"Foster City Blvd & Polynesia Dr",,  37.558526,-122.263772,1,,0,
361092,361092,"E Hillsdale Blvd & Altair Ave",,  37.552362,-122.279864,1,,0,
361096,361096,"E Hillsdale Blvd & Edgewater Blvd",,  37.554046,-122.278305,1,,0,
361098,361098,"E Hillsdale Blvd & Foster City Blvd",,  37.561602,-122.268636,1,,0,
361099,361099,"E Hillsdale Blvd & Foster City Blvd",,  37.560790,-122.269730,1,,0,
361101,361101,"E Hillsdale Blvd & Pilgrim Dr",,  37.563900,-122.267816,1,,0,
361103,361103,"E Hillsdale Blvd & Sea Spray Ln",,  37.552579,-122.280088,1,,0,
361105,361105,"E Hillsdale Blvd & Shell Blvd",,  37.558960,-122.270881,1,,0,
361208,361208,"Shell Blvd & Beach Park Blvd",,  37.549334,-122.263875,1,,0,
361209,361209,"Shell Blvd & Bounty Dr",,  37.555031,-122.264843,1,,0,
361210,361210,"Shell Blvd & Catamaran St",,  37.551983,-122.263438,1,,0,
361215,361215,"Foster City Blvd & E Hillsdale Blvd",,  37.560774,-122.267744,1,,0,
361518,361518,"1250 E Hillsdale Blvd-Waters Edge Apts",,  37.567388,-122.267230,1,,0,
361519,361519,"Beach Park Blvd & Gull Ave",,  37.566240,-122.251503,1,,0,
361520,361520,"Beach Park Blvd & Teal St",,  37.571459,-122.261805,1,,0,
361600,361600,"Shell Blvd & E Hillsdale Blvd",,  37.557899,-122.269825,1,,0,
361602,361602,"Chess Dr & Vintage Park Dr",,  37.562413,-122.279092,1,,0,
361604,361604,"Shell Blvd & E Hillsdale Blvd",,  37.557719,-122.270104,1,,0,
361605,361605,"Shell Blvd & Bounty Dr",,  37.555294,-122.265468,1,,0,
361606,361606,"Shell Blvd & Catamaran St",,  37.551289,-122.263669,1,,0,
361619,361619,"Shell Blvd & E Hillsdale Blvd",,  37.559073,-122.272040,1,,0,
361621,361621,"Metro Center Blvd & Gateway Dr",,  37.557973,-122.278792,1,,0,
361622,361622,"Metro Center Blvd & Vintage Park Dr",,  37.559168,-122.276845,1,,0,
361623,361623,"Metro Center Blvd & Vintage Park Dr",,  37.558998,-122.277970,1,,0,
361624,361624,"Metro Center Blvd & Vintage Park Dr",,  37.559902,-122.276277,1,,0,
361700,361700,"Foster City Blvd & Bounty Dr",,  37.556317,-122.260402,1,,0,
361701,361701,"Foster City Blvd & Beach Park Blvd",,  37.551529,-122.251768,1,,0,
362005,362005,"Marine Pkwy & Island Dr",,  37.534921,-122.254870,1,,0,
362008,362008,"Marine Pkwy & Oracle Pkwy",,  37.528744,-122.259426,1,,0,
362010,362010,"Marine Pkwy & Sandpiper Ln",,  37.532918,-122.256597,1,,0,
362014,362014,"Marine Pkwy & Twin Dolphin Dr",,  37.528744,-122.263542,1,,0,
362015,362015,"Marine Pkwy & Twin Dolphin Dr",,  37.528476,-122.263212,1,,0,
362019,362019,"Redwood Shores Pkwy & Cringle Dr",,  37.527617,-122.249089,1,,0,
362059,362059,"Marine Pkwy & Oracle Pkwy",,  37.528808,-122.261742,1,,0,
362176,362176,"Marine Pkwy & Beacon Shores Dr",,  37.536328,-122.250790,1,,0,
362402,362402,"Marine Pkwy & Shell Pkwy",,  37.538044,-122.248935,1,,0,
362403,362403,"Marine Pkwy & Corriente Pointe Dr",,  37.540855,-122.247809,1,,0,
362404,362404,"Shearwater Pkwy & Marine Pkwy",,  37.542387,-122.246833,1,,0,
362405,362405,"Shearwater Pkwy & Monaco Dr",,  37.543364,-122.243876,1,,0,
362406,362406,"Shearwater Pkwy & Saint Lucia Dr",,  37.543075,-122.240485,1,,0,
362407,362407,"Shearwater Pkwy & Mindanao Dr",,  37.541934,-122.238460,1,,0,
362408,362408,"Shearwater Pkwy & Breakwater Dr",,  37.540160,-122.236579,1,,0,
362409,362409,"Redwood Shores Pkwy & Shearwater Pk",,  37.539498,-122.234768,1,,0,
362410,362410,"Redwood Shores Pkwy & Egret Ln",,  37.536012,-122.236295,1,,0,
362411,362411,"Redwood Shores Pkwy & Avocet Dr",,  37.534530,-122.239740,1,,0,
362412,362412,"Redwood Shores Pkwy & Shell Pkwy",,  37.531990,-122.244074,1,,0,
362415,362415,"Bridge Pkwy & Bowsprit Dr",,  37.527779,-122.252607,1,,0,
362600,362600,"Redwood Shores Pkwy & Airport Way",,  37.517104,-122.253754,1,,0,
362601,362601,"Redwood Shores Pkwy & Market Place",,  37.522153,-122.252895,1,,0,
362602,362602,"Redwood Shores Pkwy & Shoreline Dr",,  37.523705,-122.253270,1,,0,
362603,362603,"Redwood Shores Pkwy & Twin Dolphin",,  37.518475,-122.252935,1,,0,
362604,362604,"Redwood Shores Pkwy & Electronic Arts Dr",,  37.520932,-122.252813,1,,0,
362605,362605,"Marine Pkwy & Bridge Pkwy",,  37.530545,-122.257886,1,,0,
363001,363001,"Bay Rd & University Ave-Fordam St",,  37.471815,-122.137722,1,,0,
363002,363002,"Bay Rd & Gloria Way",,  37.471436,-122.142112,1,,0,
363003,363003,"Bay Rd & Palo Verde Ave",,  37.471038,-122.144182,1,,0,
363004,363004,"Bay Rd & Palo Verde Ave",,  37.471179,-122.144170,1,,0,
363005,363005,"Bay Rd & University Ave",,  37.471685,-122.140248,1,,0,
363006,363006,"Bay Rd & University Ave Nearside",,  37.471500,-122.140250,1,,0,
363007,363007,"W Bayshore Rd & Cooley Ave",,  37.458728,-122.138834,1,,0,
363008,363008,"W Bayshore Rd & Woodland Ave",,  37.453673,-122.130018,1,,0,
363009,363009,"Woodland Ave & Newell Rd",,  37.454849,-122.137023,1,,0,
363013,363013,"Clarke Ave & Bell St",,  37.466278,-122.134852,1,,0,
363014,363014,"Clarke Ave & Bell St",,  37.466070,-122.134705,1,,0,
363015,363015,"Clarke Ave & Tinsley St",,  37.458717,-122.134646,1,,0,
363016,363016,"Clarke Ave & E Bayshore Rd",,  37.457916,-122.134467,1,,0,
363017,363017,"Clarke Ave & O Connor St-Ravenswood Shopping Ctr",,  37.460900,-122.134539,1,,0,
363018,363018,"Clarke Ave & O'Connor St-Ravenswood Shopping Ctr",,  37.460454,-122.134678,1,,0,
363020,363020,"Donohoe St & Capitol Ave",,  37.462445,-122.139895,1,,0,
363021,363021,"Donohoe St & Clarke Ave",,  37.462446,-122.134904,1,,0,
363022,363022,"Donohoe St & Clarke Ave",,  37.462552,-122.134982,1,,0,
363023,363023,"Pulgas Ave & Gaillardia Way",,  37.458286,-122.129941,1,,0,
363024,363024,"Pulgas Ave & Oakes St",,  37.457905,-122.130098,1,,0,
363026,363026,"Fordham St & Michigan Ave",,  37.473786,-122.137204,1,,0,
363027,363027,"Fordham St & Michigan Ave",,  37.473985,-122.137063,1,,0,
363028,363028,"Fordham St & Notre Dame Ave",,  37.475525,-122.137258,1,,0,
363029,363029,"W Bayshore Rd & Newell Rd",,  37.457509,-122.136535,1,,0,
363032,363032,"Woodland Ave & University Ave",,  37.457861,-122.141267,1,,0,
363037,363037,"Newbridge St & Bay Rd",,  37.470747,-122.148323,1,,0,
363039,363039,"Newbridge St & Laurel Ave",,  37.471855,-122.151281,1,,0,
363040,363040,"Newbridge St & Mello St",,  37.471409,-122.150381,1,,0,
363041,363041,"Bay Rd & Oakwood Dr",,  37.470827,-122.146873,1,,0,
363042,363042,"Newbridge St & Saratoga Ave",,  37.472580,-122.153444,1,,0,
363043,363043,"Newbridge St & Willow Rd",,  37.472585,-122.153957,1,,0,
363044,363044,"Notre Dame Ave & Illinois St",,  37.475935,-122.135706,1,,0,
363048,363048,"Manhattan Ave & O'Connor St",,  37.459963,-122.143275,1,,0,
363049,363049,"Pulgas Ave & E Bayshore Rd",,  37.454866,-122.129962,1,,0,
363050,363050,"Pulgas Ave & E Bayshore Rd",,  37.455028,-122.129824,1,,0,
363051,363051,"Pulgas Ave & O'Connor St",,  37.461141,-122.130140,1,,0,
363052,363052,"Pulgas Ave & O'Connor St",,  37.461298,-122.130004,1,,0,
363053,363053,"Pulgas Ave & Sage St",,  37.463932,-122.130217,1,,0,
363054,363054,"Pulgas Ave & Sage St",,  37.464108,-122.130085,1,,0,
363055,363055,"Purdue Ave & Fordham St",,  37.478131,-122.136781,1,,0,
363060,363060,"University Ave & Donohoe St",,  37.463657,-122.141604,1,,0,
363062,363062,"University Ave & Bell St",,  37.465892,-122.141451,1,,0,
363063,363063,"University Ave & Bell St",,  37.466320,-122.141693,1,,0,
363064,363064,"2111 University Ave-Bell St Park",,  37.463668,-122.141855,1,,0,
363065,363065,"University Ave & Runnymede St",,  37.468254,-122.141585,1,,0,
363066,363066,"University Ave & Runnymede St",,  37.468747,-122.141153,1,,0,
363067,363067,"University Ave & Sacramento St",,  37.469834,-122.140746,1,,0,
363068,363068,"University Ave & Woodland Ave",,  37.457710,-122.142116,1,,0,
363074,363074,"University Ave & Woodland Ave",,  37.457621,-122.141931,1,,0,
363080,363080,"Bay Rd & University Ave Farside",,  37.471589,-122.139024,1,,0,
363600,363600,"E Bayshore Rd & Donohoe St",,  37.461224,-122.137964,1,,0,
363601,363601,"Bay Rd & Clarke Ave",,  37.471635,-122.135317,1,,0,
363602,363602,"Bay Rd & Pulgas Ave",,  37.472706,-122.132073,1,,0,
363604,363604,"Pulgas Ave & Weeks St",,  37.470450,-122.130373,1,,0,
363605,363605,"Bay Rd & Pulgas Ave",,  37.472747,-122.132640,1,,0,
363606,363606,"Bay Rd & Clarke Ave",,  37.471853,-122.135518,1,,0,
363607,363607,"Pulgas Ave & Weeks St",,  37.469789,-122.130381,1,,0,
363608,363608,"Clarke Ave & Runnymede St",,  37.468068,-122.134771,1,,0,
363609,363609,"Clarke Ave & Runnymede St",,  37.468092,-122.134957,1,,0,
363610,363610,"Woodland Ave & Manhattan Ave",,  37.458322,-122.143543,1,,0,
363611,363611,"Pulgas Ave & Garden St",,  37.466424,-122.130290,1,,0,
363612,363612,"Pulgas Ave & Garden St",,  37.467304,-122.130157,1,,0,
363613,363613,"Clarke Ave & Donohoe St",,  37.462741,-122.134755,1,,0,
